{
  "type": "FeatureCollection",
  "features": [
    {
      "type": "Feature",
      "geometry": {
        "type": "Point",
        "coordinates": [
          -83.065415,
          40.11107
        ]
      },
      "properties": {
        "station_id": "001443e6-5a79-5569-8be6-5f91a58f8926",
        "ground_truth_value": 12.308902297280165,
        "pollutant": "NO2",
        "period_key": "2024-03",
        "predicted_value": null
      }
    },
    {
      "type": "Feature",
      "geometry": {
        "type": "Point",
        "coordinates": [
          -93.207615,
          45.13768
        ]
      },
      "properties": {
        "station_id": "008de6fa-8aea-55d7-9cf0-1e9dcfb0769d",
        "ground_truth_value": 7.009017893660531,
        "pollutant": "NO2",
        "period_key": "2024-03",
        "predicted_value": null
      }
    },
    {
      "type": "Feature",
      "geometry": {
        "type": "Point",
        "coordinates": [
          -74.208365,
          40.64144
        ]
      },
      "properties": {
        "station_id": "008e2f32-af3a-5d33-8fc6-eb95fd246e33",
        "ground_truth_value": 40.282252099447845,
        "pollutant": "NO2",
        "period_key": "2024-03",
        "predicted_value": null
      }
    },
    {
      "type": "Feature",
      "geometry": {
        "type": "Point",
        "coordinates": [
          -113.32098,
          53.53209
        ]
      },
      "properties": {
        "station_id": "014e1367-c0f4-5467-8a1c-5325539d0c75",
        "ground_truth_value": 13.74397439317152,
        "pollutant": "NO2",
        "period_key": "2024-03",
        "predicted_value": null
      }
    },
    {
      "type": "Feature",
      "geometry": {
        "type": "Point",
        "coordinates": [
          -112.00876,
          40.709762
        ]
      },
      "properties": {
        "station_id": "015d1549-10b9-5224-a2b0-b11eb0a518a6",
        "ground_truth_value": 14.159156952965237,
        "pollutant": "NO2",
        "period_key": "2024-03",
        "predicted_value": null
      }
    },
    {
      "type": "Feature",
      "geometry": {
        "type": "Point",
        "coordinates": [
          -104.70645,
          40.2614
        ]
      },
      "properties": {
        "station_id": "0164f7e9-9af7-5220-991a-3305fa78d1d5",
        "ground_truth_value": 8.827230518282207,
        "pollutant": "NO2",
        "period_key": "2024-03",
        "predicted_value": null
      }
    },
    {
      "type": "Feature",
      "geometry": {
        "type": "Point",
        "coordinates": [
          -91.788991,
          39.474976
        ]
      },
      "properties": {
        "station_id": "029bcf8f-6b7f-556c-9a39-9c45a0bcbfd2",
        "ground_truth_value": 3.5358698330674843,
        "pollutant": "NO2",
        "period_key": "2024-03",
        "predicted_value": null
      }
    },
    {
      "type": "Feature",
      "geometry": {
        "type": "Point",
        "coordinates": [
          -77.48925,
          39.02473
        ]
      },
      "properties": {
        "station_id": "03ac0621-e774-58a3-9c5b-11ea3ff19aeb",
        "ground_truth_value": 9.817123993885481,
        "pollutant": "NO2",
        "period_key": "2024-03",
        "predicted_value": null
      }
    },
    {
      "type": "Feature",
      "geometry": {
        "type": "Point",
        "coordinates": [
          -117.7514,
          34.06703
        ]
      },
      "properties": {
        "station_id": "04d1d55e-7be5-5edb-985a-b97c29265295",
        "ground_truth_value": 23.67699494198364,
        "pollutant": "NO2",
        "period_key": "2024-03",
        "predicted_value": null
      }
    },
    {
      "type": "Feature",
      "geometry": {
        "type": "Point",
        "coordinates": [
          -106.683324,
          31.787885
        ]
      },
      "properties": {
        "station_id": "04df42a9-f66f-50df-b4db-0bb28e081223",
        "ground_truth_value": 8.59271160198364,
        "pollutant": "NO2",
        "period_key": "2024-03",
        "predicted_value": null
      }
    },
    {
      "type": "Feature",
      "geometry": {
        "type": "Point",
        "coordinates": [
          -43.5567,
          -22.8862
        ]
      },
      "properties": {
        "station_id": "051e2d2f-4415-52ee-a4e4-def6484e95bc",
        "ground_truth_value": 20.92521739130435,
        "pollutant": "NO2",
        "period_key": "2024-03",
        "predicted_value": null
      }
    },
    {
      "type": "Feature",
      "geometry": {
        "type": "Point",
        "coordinates": [
          -121.442495,
          37.682635
        ]
      },
      "properties": {
        "station_id": "070b0ed4-4d32-5dcc-b862-f7ef9fa8141f",
        "ground_truth_value": 4.788711554192229,
        "pollutant": "NO2",
        "period_key": "2024-03",
        "predicted_value": null
      }
    },
    {
      "type": "Feature",
      "geometry": {
        "type": "Point",
        "coordinates": [
          -96.399141,
          32.031934
        ]
      },
      "properties": {
        "station_id": "076600f0-8ae4-52f3-9c13-833f2ed1c456",
        "ground_truth_value": 1.2073705999386501,
        "pollutant": "NO2",
        "period_key": "2024-03",
        "predicted_value": null
      }
    },
    {
      "type": "Feature",
      "geometry": {
        "type": "Point",
        "coordinates": [
          -107.81689,
          50.285833
        ]
      },
      "properties": {
        "station_id": "07af4bc2-2f45-5a1b-9323-32da27032f88",
        "ground_truth_value": 12.308901670074992,
        "pollutant": "NO2",
        "period_key": "2024-03",
        "predicted_value": null
      }
    },
    {
      "type": "Feature",
      "geometry": {
        "type": "Point",
        "coordinates": [
          -94.071061,
          30.036422
        ]
      },
      "properties": {
        "station_id": "07c96647-4225-582b-bdd3-62ddf050af18",
        "ground_truth_value": 11.34457433204499,
        "pollutant": "NO2",
        "period_key": "2024-03",
        "predicted_value": null
      }
    },
    {
      "type": "Feature",
      "geometry": {
        "type": "Point",
        "coordinates": [
          -75.067815,
          40.92458
        ]
      },
      "properties": {
        "station_id": "0856dfdb-cd59-57f0-a38f-1fc3ede5e667",
        "ground_truth_value": 18.66383487787321,
        "pollutant": "NO2",
        "period_key": "2024-03",
        "predicted_value": null
      }
    },
    {
      "type": "Feature",
      "geometry": {
        "type": "Point",
        "coordinates": [
          -107.904167,
          36.035
        ]
      },
      "properties": {
        "station_id": "087a7ac1-c131-597e-97fd-abe85e275c28",
        "ground_truth_value": 0.7526462167689162,
        "pollutant": "NO2",
        "period_key": "2024-03",
        "predicted_value": null
      }
    },
    {
      "type": "Feature",
      "geometry": {
        "type": "Point",
        "coordinates": [
          121.15044999999999,
          22.755358
        ]
      },
      "properties": {
        "station_id": "08e32399-6c35-5c0c-871c-626cc7871a4f",
        "ground_truth_value": 8.647591049334412,
        "pollutant": "NO2",
        "period_key": "2024-03",
        "predicted_value": null
      }
    },
    {
      "type": "Feature",
      "geometry": {
        "type": "Point",
        "coordinates": [
          -72.679923,
          41.771444
        ]
      },
      "properties": {
        "station_id": "08f17cae-4ecf-5a7f-a830-411fc76f3ec2",
        "ground_truth_value": 15.232904625194273,
        "pollutant": "NO2",
        "period_key": "2024-03",
        "predicted_value": null
      }
    },
    {
      "type": "Feature",
      "geometry": {
        "type": "Point",
        "coordinates": [
          120.31725000000002,
          23.305633
        ]
      },
      "properties": {
        "station_id": "092b50bd-9e89-50d2-858d-7c3b7fc2b10b",
        "ground_truth_value": 18.73383467757964,
        "pollutant": "NO2",
        "period_key": "2024-03",
        "predicted_value": null
      }
    },
    {
      "type": "Feature",
      "geometry": {
        "type": "Point",
        "coordinates": [
          -118.178601,
          34.725389
        ]
      },
      "properties": {
        "station_id": "0a8754b1-06c3-5319-9241-c28da1b571b0",
        "ground_truth_value": 3.5832507940286296,
        "pollutant": "NO2",
        "period_key": "2024-03",
        "predicted_value": null
      }
    },
    {
      "type": "Feature",
      "geometry": {
        "type": "Point",
        "coordinates": [
          -118.22688,
          34.06659
        ]
      },
      "properties": {
        "station_id": "0b29aa40-095d-57fb-be1b-8583c0eb2d3c",
        "ground_truth_value": 25.495890593047033,
        "pollutant": "NO2",
        "period_key": "2024-03",
        "predicted_value": null
      }
    },
    {
      "type": "Feature",
      "geometry": {
        "type": "Point",
        "coordinates": [
          -115.078742,
          36.141875
        ]
      },
      "properties": {
        "station_id": "0c22b41d-227d-5bea-84a2-37bdfcfaffb1",
        "ground_truth_value": 14.185744180572597,
        "pollutant": "NO2",
        "period_key": "2024-03",
        "predicted_value": null
      }
    },
    {
      "type": "Feature",
      "geometry": {
        "type": "Point",
        "coordinates": [
          -114.1403,
          51.0814
        ]
      },
      "properties": {
        "station_id": "0c6ff408-389f-5b69-950a-fc1ea815b224",
        "ground_truth_value": 19.07273935675777,
        "pollutant": "NO2",
        "period_key": "2024-03",
        "predicted_value": null
      }
    },
    {
      "type": "Feature",
      "geometry": {
        "type": "Point",
        "coordinates": [
          -106.519466,
          45.668052
        ]
      },
      "properties": {
        "station_id": "0ce92f62-ee23-5771-b426-ed1b9d24bcea",
        "ground_truth_value": 1.4896129312269937,
        "pollutant": "NO2",
        "period_key": "2024-03",
        "predicted_value": null
      }
    },
    {
      "type": "Feature",
      "geometry": {
        "type": "Point",
        "coordinates": [
          -109.353932,
          40.206291
        ]
      },
      "properties": {
        "station_id": "0e5c6533-0860-5b03-a212-2d42e739cee5",
        "ground_truth_value": 2.806743810572597,
        "pollutant": "NO2",
        "period_key": "2024-03",
        "predicted_value": null
      }
    },
    {
      "type": "Feature",
      "geometry": {
        "type": "Point",
        "coordinates": [
          -105.0153,
          39.73217
        ]
      },
      "properties": {
        "station_id": "0e62f423-7312-55ef-b350-70157f41b54e",
        "ground_truth_value": 37.94983346114519,
        "pollutant": "NO2",
        "period_key": "2024-03",
        "predicted_value": null
      }
    },
    {
      "type": "Feature",
      "geometry": {
        "type": "Point",
        "coordinates": [
          -90.28115,
          38.63114
        ]
      },
      "properties": {
        "station_id": "0f615fbd-55c4-51ec-8f94-091f62090b63",
        "ground_truth_value": 13.774993152617588,
        "pollutant": "NO2",
        "period_key": "2024-03",
        "predicted_value": null
      }
    },
    {
      "type": "Feature",
      "geometry": {
        "type": "Point",
        "coordinates": [
          -117.02471,
          34.89405
        ]
      },
      "properties": {
        "station_id": "10628902-b839-5694-b363-ad8a9a7b83f8",
        "ground_truth_value": 16.56676871155419,
        "pollutant": "NO2",
        "period_key": "2024-03",
        "predicted_value": null
      }
    },
    {
      "type": "Feature",
      "geometry": {
        "type": "Point",
        "coordinates": [
          -75.3725,
          39.835556
        ]
      },
      "properties": {
        "station_id": "107390be-717d-51cd-b0f8-1108d9eec046",
        "ground_truth_value": 16.498347525603272,
        "pollutant": "NO2",
        "period_key": "2024-03",
        "predicted_value": null
      }
    },
    {
      "type": "Feature",
      "geometry": {
        "type": "Point",
        "coordinates": [
          -104.778334,
          41.182227
        ]
      },
      "properties": {
        "station_id": "10871ab3-acce-5ecf-b0da-fdd7d4557d0d",
        "ground_truth_value": 4.564963005255624,
        "pollutant": "NO2",
        "period_key": "2024-03",
        "predicted_value": null
      }
    },
    {
      "type": "Feature",
      "geometry": {
        "type": "Point",
        "coordinates": [
          -108.02611,
          39.43806
        ]
      },
      "properties": {
        "station_id": "10920f7c-7c9f-5ea3-bba1-b92ccad4fe68",
        "ground_truth_value": 3.994512680603272,
        "pollutant": "NO2",
        "period_key": "2024-03",
        "predicted_value": null
      }
    },
    {
      "type": "Feature",
      "geometry": {
        "type": "Point",
        "coordinates": [
          -75.207205,
          39.988842
        ]
      },
      "properties": {
        "station_id": "10a7c7bb-72d5-5fa3-ae71-1985083fe8d6",
        "ground_truth_value": 21.677778428691205,
        "pollutant": "NO2",
        "period_key": "2024-03",
        "predicted_value": null
      }
    },
    {
      "type": "Feature",
      "geometry": {
        "type": "Point",
        "coordinates": [
          -93.06299,
          44.77553
        ]
      },
      "properties": {
        "station_id": "10d069ae-0051-5eb7-aeca-bc5075918879",
        "ground_truth_value": 7.165818561615542,
        "pollutant": "NO2",
        "period_key": "2024-03",
        "predicted_value": null
      }
    },
    {
      "type": "Feature",
      "geometry": {
        "type": "Point",
        "coordinates": [
          -93.761341,
          30.085263
        ]
      },
      "properties": {
        "station_id": "116afb7f-e691-5364-a737-ae5ef33df2d6",
        "ground_truth_value": 5.785967791411044,
        "pollutant": "NO2",
        "period_key": "2024-03",
        "predicted_value": null
      }
    },
    {
      "type": "Feature",
      "geometry": {
        "type": "Point",
        "coordinates": [
          -119.043889,
          35.376953
        ]
      },
      "properties": {
        "station_id": "123dfb45-d03d-5263-a16f-13bfa95f2633",
        "ground_truth_value": 25.03366797194274,
        "pollutant": "NO2",
        "period_key": "2024-03",
        "predicted_value": null
      }
    },
    {
      "type": "Feature",
      "geometry": {
        "type": "Point",
        "coordinates": [
          -120.50103,
          35.03146
        ]
      },
      "properties": {
        "station_id": "124d81b8-bc7a-555d-a005-80f732a0bff7",
        "ground_truth_value": 2.47064211601227,
        "pollutant": "NO2",
        "period_key": "2024-03",
        "predicted_value": null
      }
    },
    {
      "type": "Feature",
      "geometry": {
        "type": "Point",
        "coordinates": [
          120.33773599999999,
          22.565833
        ]
      },
      "properties": {
        "station_id": "125528cc-9f99-5569-887a-24adeba6e034",
        "ground_truth_value": 33.107741498874006,
        "pollutant": "NO2",
        "period_key": "2024-03",
        "predicted_value": null
      }
    },
    {
      "type": "Feature",
      "geometry": {
        "type": "Point",
        "coordinates": [
          120.29740529000001,
          23.113376420000005
        ]
      },
      "properties": {
        "station_id": "128cfb35-96d1-59dd-91f6-7c0c346e209e",
        "ground_truth_value": 17.793026752408082,
        "pollutant": "NO2",
        "period_key": "2024-03",
        "predicted_value": null
      }
    },
    {
      "type": "Feature",
      "geometry": {
        "type": "Point",
        "coordinates": [
          -108.40377,
          55.83473
        ]
      },
      "properties": {
        "station_id": "136c19d2-00de-57a4-8673-fa909ac57380",
        "ground_truth_value": 1.646413599182005,
        "pollutant": "NO2",
        "period_key": "2024-03",
        "predicted_value": null
      }
    },
    {
      "type": "Feature",
      "geometry": {
        "type": "Point",
        "coordinates": [
          -112.04659,
          33.45797
        ]
      },
      "properties": {
        "station_id": "1401bdeb-6a2a-5aa3-8128-f2c29351ac85",
        "ground_truth_value": 22.18738389237219,
        "pollutant": "NO2",
        "period_key": "2024-03",
        "predicted_value": null
      }
    },
    {
      "type": "Feature",
      "geometry": {
        "type": "Point",
        "coordinates": [
          -115.238282,
          36.270592
        ]
      },
      "properties": {
        "station_id": "14345228-dfb0-5e8f-b626-f105b2daf82a",
        "ground_truth_value": 6.790178479672801,
        "pollutant": "NO2",
        "period_key": "2024-03",
        "predicted_value": null
      }
    },
    {
      "type": "Feature",
      "geometry": {
        "type": "Point",
        "coordinates": [
          -115.11393,
          36.163962
        ]
      },
      "properties": {
        "station_id": "144319c3-644a-5862-b593-1134fed1ce9b",
        "ground_truth_value": 15.723761671615542,
        "pollutant": "NO2",
        "period_key": "2024-03",
        "predicted_value": null
      }
    },
    {
      "type": "Feature",
      "geometry": {
        "type": "Point",
        "coordinates": [
          -119.77321,
          36.78538
        ]
      },
      "properties": {
        "station_id": "16b0c325-f0ec-5bb1-907c-7ce39eed9778",
        "ground_truth_value": 9.350810740593047,
        "pollutant": "NO2",
        "period_key": "2024-03",
        "predicted_value": null
      }
    },
    {
      "type": "Feature",
      "geometry": {
        "type": "Point",
        "coordinates": [
          -123.15133,
          49.70516
        ]
      },
      "properties": {
        "station_id": "16f48deb-ae74-50c9-9508-c67395af1d63",
        "ground_truth_value": 7.019244065084023,
        "pollutant": "NO2",
        "period_key": "2024-03",
        "predicted_value": null
      }
    },
    {
      "type": "Feature",
      "geometry": {
        "type": "Point",
        "coordinates": [
          -115.56306,
          32.79222
        ]
      },
      "properties": {
        "station_id": "177a3759-58f0-5859-96af-e52207612f43",
        "ground_truth_value": 5.90663579611452,
        "pollutant": "NO2",
        "period_key": "2024-03",
        "predicted_value": null
      }
    },
    {
      "type": "Feature",
      "geometry": {
        "type": "Point",
        "coordinates": [
          -104.52277,
          41.08536
        ]
      },
      "properties": {
        "station_id": "1841b750-23e4-53ea-9d4a-0b99f83431b9",
        "ground_truth_value": 4.351235940695296,
        "pollutant": "NO2",
        "period_key": "2024-03",
        "predicted_value": null
      }
    },
    {
      "type": "Feature",
      "geometry": {
        "type": "Point",
        "coordinates": [
          102.728925,
          17.877479999999995
        ]
      },
      "properties": {
        "station_id": "1971471d-3a28-5ff0-933e-e77f91000aa5",
        "ground_truth_value": 11.131384251612397,
        "pollutant": "NO2",
        "period_key": "2024-03",
        "predicted_value": null
      }
    },
    {
      "type": "Feature",
      "geometry": {
        "type": "Point",
        "coordinates": [
          100.4130773,
          14.8933874
        ]
      },
      "properties": {
        "station_id": "197db935-b915-584d-9b3f-d08e06c80114",
        "ground_truth_value": 14.026588585238894,
        "pollutant": "NO2",
        "period_key": "2024-03",
        "predicted_value": null
      }
    },
    {
      "type": "Feature",
      "geometry": {
        "type": "Point",
        "coordinates": [
          -72.902871,
          41.3014
        ]
      },
      "properties": {
        "station_id": "1bb021a9-32bc-566b-b3b5-7d22a507a6b1",
        "ground_truth_value": 13.11404182443763,
        "pollutant": "NO2",
        "period_key": "2024-03",
        "predicted_value": null
      }
    },
    {
      "type": "Feature",
      "geometry": {
        "type": "Point",
        "coordinates": [
          -117.41601,
          33.99958
        ]
      },
      "properties": {
        "station_id": "1bffe30b-bd68-511b-8217-7e28f515a213",
        "ground_truth_value": 18.408471424601228,
        "pollutant": "NO2",
        "period_key": "2024-03",
        "predicted_value": null
      }
    },
    {
      "type": "Feature",
      "geometry": {
        "type": "Point",
        "coordinates": [
          -118.363036,
          34.181977
        ]
      },
      "properties": {
        "station_id": "1cfa7168-2697-551a-8ab6-07387cc71ed7",
        "ground_truth_value": 19.59232183026585,
        "pollutant": "NO2",
        "period_key": "2024-03",
        "predicted_value": null
      }
    },
    {
      "type": "Feature",
      "geometry": {
        "type": "Point",
        "coordinates": [
          -115.091437,
          36.214465
        ]
      },
      "properties": {
        "station_id": "1e32e16b-c80b-56d4-b38c-a19b0c7b361e",
        "ground_truth_value": 12.590461602126789,
        "pollutant": "NO2",
        "period_key": "2024-03",
        "predicted_value": null
      }
    },
    {
      "type": "Feature",
      "geometry": {
        "type": "Point",
        "coordinates": [
          -109.455315,
          47.048537
        ]
      },
      "properties": {
        "station_id": "1e707aa8-50e9-54aa-b341-962613f2582a",
        "ground_truth_value": 1.2544109884867074,
        "pollutant": "NO2",
        "period_key": "2024-03",
        "predicted_value": null
      }
    },
    {
      "type": "Feature",
      "geometry": {
        "type": "Point",
        "coordinates": [
          -109.688108,
          40.05671
        ]
      },
      "properties": {
        "station_id": "1f9a65b8-db64-5d16-b253-1e470736339c",
        "ground_truth_value": 2.8616230094683024,
        "pollutant": "NO2",
        "period_key": "2024-03",
        "predicted_value": null
      }
    },
    {
      "type": "Feature",
      "geometry": {
        "type": "Point",
        "coordinates": [
          -112.35578,
          40.60055
        ]
      },
      "properties": {
        "station_id": "1fd5d579-f2d4-52ca-9d75-bdd9e347482c",
        "ground_truth_value": 1.0976084389161556,
        "pollutant": "NO2",
        "period_key": "2024-03",
        "predicted_value": null
      }
    },
    {
      "type": "Feature",
      "geometry": {
        "type": "Point",
        "coordinates": [
          -118.171019,
          33.793713
        ]
      },
      "properties": {
        "station_id": "206bfe40-e681-5a38-ba86-c85743e18f63",
        "ground_truth_value": 14.809881700674847,
        "pollutant": "NO2",
        "period_key": "2024-03",
        "predicted_value": null
      }
    },
    {
      "type": "Feature",
      "geometry": {
        "type": "Point",
        "coordinates": [
          -110.009732,
          40.294178
        ]
      },
      "properties": {
        "station_id": "21a6fd11-92f8-5d9c-974e-769c0b96b08a",
        "ground_truth_value": 6.601333899038854,
        "pollutant": "NO2",
        "period_key": "2024-03",
        "predicted_value": null
      }
    },
    {
      "type": "Feature",
      "geometry": {
        "type": "Point",
        "coordinates": [
          -82.208306,
          42.403964
        ]
      },
      "properties": {
        "station_id": "22ced33c-d4b5-50f2-af5d-216766f36fb7",
        "ground_truth_value": 8.232067995910018,
        "pollutant": "NO2",
        "period_key": "2024-03",
        "predicted_value": null
      }
    },
    {
      "type": "Feature",
      "geometry": {
        "type": "Point",
        "coordinates": [
          -109.53716,
          38.566055
        ]
      },
      "properties": {
        "station_id": "239d9583-87e6-5deb-a76a-5fedb99486ca",
        "ground_truth_value": 6.562134202453987,
        "pollutant": "NO2",
        "period_key": "2024-03",
        "predicted_value": null
      }
    },
    {
      "type": "Feature",
      "geometry": {
        "type": "Point",
        "coordinates": [
          -104.61602,
          50.45273
        ]
      },
      "properties": {
        "station_id": "24a12595-1e7a-5aef-93ca-c8f37d252b74",
        "ground_truth_value": 19.79786787587802,
        "pollutant": "NO2",
        "period_key": "2024-03",
        "predicted_value": null
      }
    },
    {
      "type": "Feature",
      "geometry": {
        "type": "Point",
        "coordinates": [
          120.44125148,
          23.46477865
        ]
      },
      "properties": {
        "station_id": "25aced36-493b-5144-a18b-24b9a8c3cad2",
        "ground_truth_value": 18.76911469001003,
        "pollutant": "NO2",
        "period_key": "2024-03",
        "predicted_value": null
      }
    },
    {
      "type": "Feature",
      "geometry": {
        "type": "Point",
        "coordinates": [
          120.332631,
          22.689055999999997
        ]
      },
      "properties": {
        "station_id": "25f0a69c-e687-5ea1-b2e0-157077a999ce",
        "ground_truth_value": 27.001182720967872,
        "pollutant": "NO2",
        "period_key": "2024-03",
        "predicted_value": null
      }
    },
    {
      "type": "Feature",
      "geometry": {
        "type": "Point",
        "coordinates": [
          -119.503659,
          36.597442
        ]
      },
      "properties": {
        "station_id": "26311ec6-696c-52d8-9d40-672c8efd7a53",
        "ground_truth_value": 6.3974928425357875,
        "pollutant": "NO2",
        "period_key": "2024-03",
        "predicted_value": null
      }
    },
    {
      "type": "Feature",
      "geometry": {
        "type": "Point",
        "coordinates": [
          99.883842,
          20.427325
        ]
      },
      "properties": {
        "station_id": "26d3a230-4401-5b11-a7a0-646c3146fa47",
        "ground_truth_value": 40.14113156100887,
        "pollutant": "NO2",
        "period_key": "2024-03",
        "predicted_value": null
      }
    },
    {
      "type": "Feature",
      "geometry": {
        "type": "Point",
        "coordinates": [
          -117.33098,
          33.67649
        ]
      },
      "properties": {
        "station_id": "27a40375-c322-516e-ae15-d4e481fa8097",
        "ground_truth_value": 8.075267327955011,
        "pollutant": "NO2",
        "period_key": "2024-03",
        "predicted_value": null
      }
    },
    {
      "type": "Feature",
      "geometry": {
        "type": "Point",
        "coordinates": [
          -113.327174,
          53.827241
        ]
      },
      "properties": {
        "station_id": "28a1e2ae-9751-538d-ae74-6c3a478e7c9d",
        "ground_truth_value": 8.491812750066687,
        "pollutant": "NO2",
        "period_key": "2024-03",
        "predicted_value": null
      }
    },
    {
      "type": "Feature",
      "geometry": {
        "type": "Point",
        "coordinates": [
          -114.449722,
          53.493889
        ]
      },
      "properties": {
        "station_id": "295baa58-72d6-562a-bbef-47c0e8fdcd46",
        "ground_truth_value": 4.8750948131623,
        "pollutant": "NO2",
        "period_key": "2024-03",
        "predicted_value": null
      }
    },
    {
      "type": "Feature",
      "geometry": {
        "type": "Point",
        "coordinates": [
          -119.741332,
          36.705474
        ]
      },
      "properties": {
        "station_id": "2aa954bb-5fda-5c52-9c96-269b99075f31",
        "ground_truth_value": 14.725686931635993,
        "pollutant": "NO2",
        "period_key": "2024-03",
        "predicted_value": null
      }
    },
    {
      "type": "Feature",
      "geometry": {
        "type": "Point",
        "coordinates": [
          -75.341111,
          40.628056
        ]
      },
      "properties": {
        "station_id": "2b398002-79b6-59fa-a280-0ca5b7132778",
        "ground_truth_value": 13.10586056006135,
        "pollutant": "NO2",
        "period_key": "2024-03",
        "predicted_value": null
      }
    },
    {
      "type": "Feature",
      "geometry": {
        "type": "Point",
        "coordinates": [
          -117.95264,
          33.92513
        ]
      },
      "properties": {
        "station_id": "2bcf2ebf-e649-5bdc-9f42-7c4e06f8b4e2",
        "ground_truth_value": 18.337910841779138,
        "pollutant": "NO2",
        "period_key": "2024-03",
        "predicted_value": null
      }
    },
    {
      "type": "Feature",
      "geometry": {
        "type": "Point",
        "coordinates": [
          100.09896000000002,
          17.631351999999996
        ]
      },
      "properties": {
        "station_id": "2c0058a7-ff20-5c68-b1e0-1d26866a38d3",
        "ground_truth_value": 20.35565904443206,
        "pollutant": "NO2",
        "period_key": "2024-03",
        "predicted_value": null
      }
    },
    {
      "type": "Feature",
      "geometry": {
        "type": "Point",
        "coordinates": [
          -74.735339,
          45.017976
        ]
      },
      "properties": {
        "station_id": "2d60a5cd-84b3-5a0d-b68a-b37f84ffdc84",
        "ground_truth_value": 8.058223081710683,
        "pollutant": "NO2",
        "period_key": "2024-03",
        "predicted_value": null
      }
    },
    {
      "type": "Feature",
      "geometry": {
        "type": "Point",
        "coordinates": [
          -72.334079,
          42.298493
        ]
      },
      "properties": {
        "station_id": "2d93ea9b-855b-5210-ad87-768fe484349e",
        "ground_truth_value": 1.7248148739672802,
        "pollutant": "NO2",
        "period_key": "2024-03",
        "predicted_value": null
      }
    },
    {
      "type": "Feature",
      "geometry": {
        "type": "Point",
        "coordinates": [
          -110.830833,
          44.373056
        ]
      },
      "properties": {
        "station_id": "2da155e4-a49e-57f5-b430-9ae6d6a90fc0",
        "ground_truth_value": 1.3342366462372188,
        "pollutant": "NO2",
        "period_key": "2024-03",
        "predicted_value": null
      }
    },
    {
      "type": "Feature",
      "geometry": {
        "type": "Point",
        "coordinates": [
          -120.53157,
          55.913233
        ]
      },
      "properties": {
        "station_id": "2dc2a39c-65dd-5b7b-8d57-f58f27db95fc",
        "ground_truth_value": 3.3214604783497825,
        "pollutant": "NO2",
        "period_key": "2024-03",
        "predicted_value": null
      }
    },
    {
      "type": "Feature",
      "geometry": {
        "type": "Point",
        "coordinates": [
          -119.143182,
          34.25239
        ]
      },
      "properties": {
        "station_id": "2de4362c-615c-5b3a-b26a-edaf2859fb71",
        "ground_truth_value": 4.663134414539877,
        "pollutant": "NO2",
        "period_key": "2024-03",
        "predicted_value": null
      }
    },
    {
      "type": "Feature",
      "geometry": {
        "type": "Point",
        "coordinates": [
          -73.499682,
          45.641026
        ]
      },
      "properties": {
        "station_id": "2deebc09-6df0-5c0e-a11e-6004b283ad44",
        "ground_truth_value": 9.133675443081119,
        "pollutant": "NO2",
        "period_key": "2024-03",
        "predicted_value": null
      }
    },
    {
      "type": "Feature",
      "geometry": {
        "type": "Point",
        "coordinates": [
          -128.6075,
          54.52166999999999
        ]
      },
      "properties": {
        "station_id": "2ea301e4-35fd-506b-94cb-6577b0b54f05",
        "ground_truth_value": 5.321384957356149,
        "pollutant": "NO2",
        "period_key": "2024-03",
        "predicted_value": null
      }
    },
    {
      "type": "Feature",
      "geometry": {
        "type": "Point",
        "coordinates": [
          -76.953426,
          38.89477
        ]
      },
      "properties": {
        "station_id": "3087590b-253c-5a00-a7ea-b3b5a9107cbc",
        "ground_truth_value": 23.96494044997955,
        "pollutant": "NO2",
        "period_key": "2024-03",
        "predicted_value": null
      }
    },
    {
      "type": "Feature",
      "geometry": {
        "type": "Point",
        "coordinates": [
          -119.874739,
          36.841592
        ]
      },
      "properties": {
        "station_id": "30d187c6-46d7-574e-ac79-7a17596009c9",
        "ground_truth_value": 6.471120458691207,
        "pollutant": "NO2",
        "period_key": "2024-03",
        "predicted_value": null
      }
    },
    {
      "type": "Feature",
      "geometry": {
        "type": "Point",
        "coordinates": [
          -91.056068,
          30.700895
        ]
      },
      "properties": {
        "station_id": "31055f01-7168-51a2-be77-84051eb87814",
        "ground_truth_value": 2.6577819529652356,
        "pollutant": "NO2",
        "period_key": "2024-03",
        "predicted_value": null
      }
    },
    {
      "type": "Feature",
      "geometry": {
        "type": "Point",
        "coordinates": [
          -107.08422,
          41.79358
        ]
      },
      "properties": {
        "station_id": "31136078-6a61-53bb-a6d3-64244f34c2e9",
        "ground_truth_value": 4.875094642106339,
        "pollutant": "NO2",
        "period_key": "2024-03",
        "predicted_value": null
      }
    },
    {
      "type": "Feature",
      "geometry": {
        "type": "Point",
        "coordinates": [
          100.038725,
          15.373638
        ]
      },
      "properties": {
        "station_id": "31b1914e-14f3-589a-a288-60aac4f1689f",
        "ground_truth_value": 17.310862985685073,
        "pollutant": "NO2",
        "period_key": "2024-03",
        "predicted_value": null
      }
    },
    {
      "type": "Feature",
      "geometry": {
        "type": "Point",
        "coordinates": [
          -112.036298,
          40.496392
        ]
      },
      "properties": {
        "station_id": "3253ae3d-299c-59c5-a33f-147111aa4e43",
        "ground_truth_value": 5.903568762781186,
        "pollutant": "NO2",
        "period_key": "2024-03",
        "predicted_value": null
      }
    },
    {
      "type": "Feature",
      "geometry": {
        "type": "Point",
        "coordinates": [
          -76.387017,
          37.103733
        ]
      },
      "properties": {
        "station_id": "325e0ba1-8552-5f21-98bc-14b36dd63ca5",
        "ground_truth_value": 3.8416323586298566,
        "pollutant": "NO2",
        "period_key": "2024-03",
        "predicted_value": null
      }
    },
    {
      "type": "Feature",
      "geometry": {
        "type": "Point",
        "coordinates": [
          -128.639131,
          54.066909
        ]
      },
      "properties": {
        "station_id": "333e4d65-3326-5852-a880-5991672c0782",
        "ground_truth_value": 2.62978172168663,
        "pollutant": "NO2",
        "period_key": "2024-03",
        "predicted_value": null
      }
    },
    {
      "type": "Feature",
      "geometry": {
        "type": "Point",
        "coordinates": [
          -71.056061,
          42.325186
        ]
      },
      "properties": {
        "station_id": "33412973-2f1b-5165-864e-2759e2f5e6b3",
        "ground_truth_value": 21.952181949631903,
        "pollutant": "NO2",
        "period_key": "2024-03",
        "predicted_value": null
      }
    },
    {
      "type": "Feature",
      "geometry": {
        "type": "Point",
        "coordinates": [
          -75.67599,
          45.434333
        ]
      },
      "properties": {
        "station_id": "33a267aa-0c25-549c-a6b1-9b1dbf249354",
        "ground_truth_value": 6.544749711034054,
        "pollutant": "NO2",
        "period_key": "2024-03",
        "predicted_value": null
      }
    },
    {
      "type": "Feature",
      "geometry": {
        "type": "Point",
        "coordinates": [
          -111.852199,
          41.842649
        ]
      },
      "properties": {
        "station_id": "33b1aa3c-728d-5482-99ab-3d6f59626dc6",
        "ground_truth_value": 6.068210122699387,
        "pollutant": "NO2",
        "period_key": "2024-03",
        "predicted_value": null
      }
    },
    {
      "type": "Feature",
      "geometry": {
        "type": "Point",
        "coordinates": [
          -120.010158,
          36.867125
        ]
      },
      "properties": {
        "station_id": "33f35365-1d22-5bf9-aa99-f5f785ff1924",
        "ground_truth_value": 5.546675216482618,
        "pollutant": "NO2",
        "period_key": "2024-03",
        "predicted_value": null
      }
    },
    {
      "type": "Feature",
      "geometry": {
        "type": "Point",
        "coordinates": [
          -79.274056,
          43.747917
        ]
      },
      "properties": {
        "station_id": "34a1bcfc-2478-5858-9935-2ee517b537c0",
        "ground_truth_value": 17.09134117246081,
        "pollutant": "NO2",
        "period_key": "2024-03",
        "predicted_value": null
      }
    },
    {
      "type": "Feature",
      "geometry": {
        "type": "Point",
        "coordinates": [
          120.21749999999999,
          23.048197
        ]
      },
      "properties": {
        "station_id": "350e5c63-334c-5d3e-a6ee-2af68fe9fcce",
        "ground_truth_value": 20.164646182822516,
        "pollutant": "NO2",
        "period_key": "2024-03",
        "predicted_value": null
      }
    },
    {
      "type": "Feature",
      "geometry": {
        "type": "Point",
        "coordinates": [
          -120.836008,
          37.488317
        ]
      },
      "properties": {
        "station_id": "359e7861-fc6b-5c05-aa4e-b55bdf870c44",
        "ground_truth_value": 10.954274583415131,
        "pollutant": "NO2",
        "period_key": "2024-03",
        "predicted_value": null
      }
    },
    {
      "type": "Feature",
      "geometry": {
        "type": "Point",
        "coordinates": [
          -73.572039,
          45.542767
        ]
      },
      "properties": {
        "station_id": "3660e530-7ea1-5516-87af-b3757b74c67e",
        "ground_truth_value": 11.799297460804361,
        "pollutant": "NO2",
        "period_key": "2024-03",
        "predicted_value": null
      }
    },
    {
      "type": "Feature",
      "geometry": {
        "type": "Point",
        "coordinates": [
          -72.584503,
          42.120229
        ]
      },
      "properties": {
        "station_id": "36b487c4-822e-5181-94fd-2c01acddf207",
        "ground_truth_value": 11.289693251533743,
        "pollutant": "NO2",
        "period_key": "2024-03",
        "predicted_value": null
      }
    },
    {
      "type": "Feature",
      "geometry": {
        "type": "Point",
        "coordinates": [
          101.21509,
          14.204219999999998
        ]
      },
      "properties": {
        "station_id": "37353351-4ee7-5420-b587-a3290a31deb5",
        "ground_truth_value": 19.701621556598102,
        "pollutant": "NO2",
        "period_key": "2024-03",
        "predicted_value": null
      }
    },
    {
      "type": "Feature",
      "geometry": {
        "type": "Point",
        "coordinates": [
          -71.306986,
          42.612085
        ]
      },
      "properties": {
        "station_id": "37afab00-bbd6-57ae-bf99-8d93514ed0a9",
        "ground_truth_value": 13.328109461411042,
        "pollutant": "NO2",
        "period_key": "2024-03",
        "predicted_value": null
      }
    },
    {
      "type": "Feature",
      "geometry": {
        "type": "Point",
        "coordinates": [
          -117.61722,
          34.030833
        ]
      },
      "properties": {
        "station_id": "38eaaba9-342c-541a-a6c3-140e8f8a58fc",
        "ground_truth_value": 45.20581339468302,
        "pollutant": "NO2",
        "period_key": "2024-03",
        "predicted_value": null
      }
    },
    {
      "type": "Feature",
      "geometry": {
        "type": "Point",
        "coordinates": [
          -95.079444,
          29.758889
        ]
      },
      "properties": {
        "station_id": "39bc87ac-ff4f-5ca5-8e5e-c88cfcc139e1",
        "ground_truth_value": 20.33855361965235,
        "pollutant": "NO2",
        "period_key": "2024-03",
        "predicted_value": null
      }
    },
    {
      "type": "Feature",
      "geometry": {
        "type": "Point",
        "coordinates": [
          -119.062613,
          35.356615
        ]
      },
      "properties": {
        "station_id": "39cdbb27-f381-56dd-80bf-24ee67b3444a",
        "ground_truth_value": 14.087574652903886,
        "pollutant": "NO2",
        "period_key": "2024-03",
        "predicted_value": null
      }
    },
    {
      "type": "Feature",
      "geometry": {
        "type": "Point",
        "coordinates": [
          -77.25925,
          37.34438
        ]
      },
      "properties": {
        "station_id": "3adc57a0-53fe-57e5-8d86-d297915a23d1",
        "ground_truth_value": 4.014112528895705,
        "pollutant": "NO2",
        "period_key": "2024-03",
        "predicted_value": null
      }
    },
    {
      "type": "Feature",
      "geometry": {
        "type": "Point",
        "coordinates": [
          100.322756,
          16.442554
        ]
      },
      "properties": {
        "station_id": "3b5117da-89d9-595b-ae88-466b9d0e5e99",
        "ground_truth_value": 10.565994966179016,
        "pollutant": "NO2",
        "period_key": "2024-03",
        "predicted_value": null
      }
    },
    {
      "type": "Feature",
      "geometry": {
        "type": "Point",
        "coordinates": [
          -78.346384,
          44.301848
        ]
      },
      "properties": {
        "station_id": "3c975280-32bd-5b04-b44a-e24b0304dda1",
        "ground_truth_value": 4.646090550072614,
        "pollutant": "NO2",
        "period_key": "2024-03",
        "predicted_value": null
      }
    },
    {
      "type": "Feature",
      "geometry": {
        "type": "Point",
        "coordinates": [
          -111.894167,
          40.598056
        ]
      },
      "properties": {
        "station_id": "3f4551d9-3706-53a2-8584-6fb45fd61119",
        "ground_truth_value": 19.364960579488752,
        "pollutant": "NO2",
        "period_key": "2024-03",
        "predicted_value": null
      }
    },
    {
      "type": "Feature",
      "geometry": {
        "type": "Point",
        "coordinates": [
          -135.05875,
          60.71972000000001
        ]
      },
      "properties": {
        "station_id": "4017cc42-3684-534c-9f3b-3e556a72876b",
        "ground_truth_value": 9.627599522835718,
        "pollutant": "NO2",
        "period_key": "2024-03",
        "predicted_value": null
      }
    },
    {
      "type": "Feature",
      "geometry": {
        "type": "Point",
        "coordinates": [
          -85.671339,
          42.984173
        ]
      },
      "properties": {
        "station_id": "4024fac6-e18e-5b29-8ae7-80880124d74f",
        "ground_truth_value": 8.606345788200409,
        "pollutant": "NO2",
        "period_key": "2024-03",
        "predicted_value": null
      }
    },
    {
      "type": "Feature",
      "geometry": {
        "type": "Point",
        "coordinates": [
          -95.976537,
          36.204902
        ]
      },
      "properties": {
        "station_id": "406f3f66-c772-5915-ad52-b1247d60d217",
        "ground_truth_value": 9.000393714989775,
        "pollutant": "NO2",
        "period_key": "2024-03",
        "predicted_value": null
      }
    },
    {
      "type": "Feature",
      "geometry": {
        "type": "Point",
        "coordinates": [
          -95.392509,
          29.520443
        ]
      },
      "properties": {
        "station_id": "40a634a4-f5b5-54b7-8c16-ddcb6f0776bf",
        "ground_truth_value": 12.332422491554192,
        "pollutant": "NO2",
        "period_key": "2024-03",
        "predicted_value": null
      }
    },
    {
      "type": "Feature",
      "geometry": {
        "type": "Point",
        "coordinates": [
          -110.0551,
          42.7907
        ]
      },
      "properties": {
        "station_id": "41101ad1-ca69-5ca3-b54c-5f7bc64407a5",
        "ground_truth_value": 0.6036843591615542,
        "pollutant": "NO2",
        "period_key": "2024-03",
        "predicted_value": null
      }
    },
    {
      "type": "Feature",
      "geometry": {
        "type": "Point",
        "coordinates": [
          -74.066308,
          40.731645
        ]
      },
      "properties": {
        "station_id": "412d37c1-ee99-5b41-be47-7d5f79171e43",
        "ground_truth_value": 34.51980450231084,
        "pollutant": "NO2",
        "period_key": "2024-03",
        "predicted_value": null
      }
    },
    {
      "type": "Feature",
      "geometry": {
        "type": "Point",
        "coordinates": [
          -119.7775,
          36.710833
        ]
      },
      "properties": {
        "station_id": "436ba087-64a3-53c7-a563-03d6ae009b86",
        "ground_truth_value": 24.487882804621677,
        "pollutant": "NO2",
        "period_key": "2024-03",
        "predicted_value": null
      }
    },
    {
      "type": "Feature",
      "geometry": {
        "type": "Point",
        "coordinates": [
          -118.200707,
          33.859662
        ]
      },
      "properties": {
        "station_id": "44e6eb6e-5e63-5e03-8e19-5fe11c306166",
        "ground_truth_value": 33.24187520116565,
        "pollutant": "NO2",
        "period_key": "2024-03",
        "predicted_value": null
      }
    },
    {
      "type": "Feature",
      "geometry": {
        "type": "Point",
        "coordinates": [
          -113.61191699999999,
          53.626972
        ]
      },
      "properties": {
        "station_id": "46d1e8a5-f845-57f5-bb30-38ac1a392b10",
        "ground_truth_value": 13.334927536231882,
        "pollutant": "NO2",
        "period_key": "2024-03",
        "predicted_value": null
      }
    },
    {
      "type": "Feature",
      "geometry": {
        "type": "Point",
        "coordinates": [
          104.6223,
          15.875800000000002
        ]
      },
      "properties": {
        "station_id": "47956dda-4e0f-5f42-a95c-4067ba9dea45",
        "ground_truth_value": 16.056452624403544,
        "pollutant": "NO2",
        "period_key": "2024-03",
        "predicted_value": null
      }
    },
    {
      "type": "Feature",
      "geometry": {
        "type": "Point",
        "coordinates": [
          -122.326556,
          49.021505999999995
        ]
      },
      "properties": {
        "station_id": "47a6f330-4bcb-5ed1-88f0-750a826a8168",
        "ground_truth_value": 12.246862896772473,
        "pollutant": "NO2",
        "period_key": "2024-03",
        "predicted_value": null
      }
    },
    {
      "type": "Feature",
      "geometry": {
        "type": "Point",
        "coordinates": [
          -80.7464,
          39.9679
        ]
      },
      "properties": {
        "station_id": "49cec60b-583f-5980-88ff-a38e325f12b2",
        "ground_truth_value": 10.442966257668711,
        "pollutant": "NO2",
        "period_key": "2024-03",
        "predicted_value": null
      }
    },
    {
      "type": "Feature",
      "geometry": {
        "type": "Point",
        "coordinates": [
          -122.74194,
          53.914719999999996
        ]
      },
      "properties": {
        "station_id": "4b2e30b1-9442-51ae-b92d-d218a59e4052",
        "ground_truth_value": 21.785835600604607,
        "pollutant": "NO2",
        "period_key": "2024-03",
        "predicted_value": null
      }
    },
    {
      "type": "Feature",
      "geometry": {
        "type": "Point",
        "coordinates": [
          -108.761389,
          40.086944
        ]
      },
      "properties": {
        "station_id": "4b58df97-d402-5ad0-a7c4-c85ae29a488f",
        "ground_truth_value": 1.3563305759304702,
        "pollutant": "NO2",
        "period_key": "2024-03",
        "predicted_value": null
      }
    },
    {
      "type": "Feature",
      "geometry": {
        "type": "Point",
        "coordinates": [
          120.48803299999999,
          22.673081
        ]
      },
      "properties": {
        "station_id": "4cb19546-ec70-5df1-8bbb-2a066fe05b0b",
        "ground_truth_value": 19.286559837430353,
        "pollutant": "NO2",
        "period_key": "2024-03",
        "predicted_value": null
      }
    },
    {
      "type": "Feature",
      "geometry": {
        "type": "Point",
        "coordinates": [
          -117.93845,
          33.83062
        ]
      },
      "properties": {
        "station_id": "4cfa5406-21ed-53e0-8fd2-62a93a0f6fa4",
        "ground_truth_value": 17.02077996243354,
        "pollutant": "NO2",
        "period_key": "2024-03",
        "predicted_value": null
      }
    },
    {
      "type": "Feature",
      "geometry": {
        "type": "Point",
        "coordinates": [
          103.4965833,
          14.8762222
        ]
      },
      "properties": {
        "station_id": "4d384a1f-ebf7-5b0d-939d-eac1802f2dcf",
        "ground_truth_value": 16.034636792033435,
        "pollutant": "NO2",
        "period_key": "2024-03",
        "predicted_value": null
      }
    },
    {
      "type": "Feature",
      "geometry": {
        "type": "Point",
        "coordinates": [
          -71.427881,
          41.771987
        ]
      },
      "properties": {
        "station_id": "4d70834c-34e5-5610-bbc0-fcc9c9521ccf",
        "ground_truth_value": 19.10623844247444,
        "pollutant": "NO2",
        "period_key": "2024-03",
        "predicted_value": null
      }
    },
    {
      "type": "Feature",
      "geometry": {
        "type": "Point",
        "coordinates": [
          100.605216,
          14.03742
        ]
      },
      "properties": {
        "station_id": "4d7ebd06-d611-50f8-ab26-bbf401a14421",
        "ground_truth_value": 21.01137355146558,
        "pollutant": "NO2",
        "period_key": "2024-03",
        "predicted_value": null
      }
    },
    {
      "type": "Feature",
      "geometry": {
        "type": "Point",
        "coordinates": [
          -82.979793,
          42.388405
        ]
      },
      "properties": {
        "station_id": "4d90733b-eb61-597e-b0b6-f9acbeae8b36",
        "ground_truth_value": 26.546458643415132,
        "pollutant": "NO2",
        "period_key": "2024-03",
        "predicted_value": null
      }
    },
    {
      "type": "Feature",
      "geometry": {
        "type": "Point",
        "coordinates": [
          -120.33401599999999,
          50.67477
        ]
      },
      "properties": {
        "station_id": "4e0fbcf4-351b-547f-8f7a-341abd1641f7",
        "ground_truth_value": 21.06591313239086,
        "pollutant": "NO2",
        "period_key": "2024-03",
        "predicted_value": null
      }
    },
    {
      "type": "Feature",
      "geometry": {
        "type": "Point",
        "coordinates": [
          -119.716433,
          36.819449
        ]
      },
      "properties": {
        "station_id": "5028a82f-372a-5c6a-a02d-6ade66fb4a39",
        "ground_truth_value": 10.365991247464212,
        "pollutant": "NO2",
        "period_key": "2024-03",
        "predicted_value": null
      }
    },
    {
      "type": "Feature",
      "geometry": {
        "type": "Point",
        "coordinates": [
          -119.270723,
          50.260617
        ]
      },
      "properties": {
        "station_id": "50df5a6a-8a03-500f-a1d8-72dbd3517c5e",
        "ground_truth_value": 18.197910312591297,
        "pollutant": "NO2",
        "period_key": "2024-03",
        "predicted_value": null
      }
    },
    {
      "type": "Feature",
      "geometry": {
        "type": "Point",
        "coordinates": [
          -97.088598,
          32.65637
        ]
      },
      "properties": {
        "station_id": "51c8bf99-d0f8-5d28-86bf-c1036a59089f",
        "ground_truth_value": 12.01881927402863,
        "pollutant": "NO2",
        "period_key": "2024-03",
        "predicted_value": null
      }
    },
    {
      "type": "Feature",
      "geometry": {
        "type": "Point",
        "coordinates": [
          -75.025204,
          39.422273
        ]
      },
      "properties": {
        "station_id": "5209c186-0386-53fc-88bd-2eca07be4997",
        "ground_truth_value": 7.777343612740287,
        "pollutant": "NO2",
        "period_key": "2024-03",
        "predicted_value": null
      }
    },
    {
      "type": "Feature",
      "geometry": {
        "type": "Point",
        "coordinates": [
          -110.098861,
          42.486361
        ]
      },
      "properties": {
        "station_id": "531e29fb-4e6a-5c4f-9bb2-77908756472d",
        "ground_truth_value": 1.3092901873824132,
        "pollutant": "NO2",
        "period_key": "2024-03",
        "predicted_value": null
      }
    },
    {
      "type": "Feature",
      "geometry": {
        "type": "Point",
        "coordinates": [
          -88.60801,
          37.08727
        ]
      },
      "properties": {
        "station_id": "53e50774-311f-5879-9bfa-db46828b328e",
        "ground_truth_value": 8.254566472944784,
        "pollutant": "NO2",
        "period_key": "2024-03",
        "predicted_value": null
      }
    },
    {
      "type": "Feature",
      "geometry": {
        "type": "Point",
        "coordinates": [
          -116.39280000000001,
          53.5936
        ]
      },
      "properties": {
        "station_id": "54f14237-b4c7-5ebd-a416-aae00abf3576",
        "ground_truth_value": 10.794531266817353,
        "pollutant": "NO2",
        "period_key": "2024-03",
        "predicted_value": null
      }
    },
    {
      "type": "Feature",
      "geometry": {
        "type": "Point",
        "coordinates": [
          -112.021476,
          41.485007
        ]
      },
      "properties": {
        "station_id": "553ff5a2-1146-509a-97a8-9e4cabb4b801",
        "ground_truth_value": 8.516355643292433,
        "pollutant": "NO2",
        "period_key": "2024-03",
        "predicted_value": null
      }
    },
    {
      "type": "Feature",
      "geometry": {
        "type": "Point",
        "coordinates": [
          -83.266189,
          42.385998
        ]
      },
      "properties": {
        "station_id": "55662854-0c25-5af3-a75c-d4b908ef2521",
        "ground_truth_value": 26.21172300173824,
        "pollutant": "NO2",
        "period_key": "2024-03",
        "predicted_value": null
      }
    },
    {
      "type": "Feature",
      "geometry": {
        "type": "Point",
        "coordinates": [
          -80.395039,
          35.551868
        ]
      },
      "properties": {
        "station_id": "55a43ca3-77df-575c-b700-2c899660d3a6",
        "ground_truth_value": 6.070255438793456,
        "pollutant": "NO2",
        "period_key": "2024-03",
        "predicted_value": null
      }
    },
    {
      "type": "Feature",
      "geometry": {
        "type": "Point",
        "coordinates": [
          -122.319722,
          47.597222
        ]
      },
      "properties": {
        "station_id": "57073429-4664-525d-8e85-968264fc23a9",
        "ground_truth_value": 27.870066043456035,
        "pollutant": "NO2",
        "period_key": "2024-03",
        "predicted_value": null
      }
    },
    {
      "type": "Feature",
      "geometry": {
        "type": "Point",
        "coordinates": [
          -106.23586,
          42.8608
        ]
      },
      "properties": {
        "station_id": "5714fcf5-c4b3-52af-ae55-c94896802213",
        "ground_truth_value": 5.331243408241309,
        "pollutant": "NO2",
        "period_key": "2024-03",
        "predicted_value": null
      }
    },
    {
      "type": "Feature",
      "geometry": {
        "type": "Point",
        "coordinates": [
          -79.863572,
          40.43743
        ]
      },
      "properties": {
        "station_id": "57406d24-d3d3-5db7-8a54-672db10b3946",
        "ground_truth_value": 12.175619941983639,
        "pollutant": "NO2",
        "period_key": "2024-03",
        "predicted_value": null
      }
    },
    {
      "type": "Feature",
      "geometry": {
        "type": "Point",
        "coordinates": [
          -118.45636,
          34.05111
        ]
      },
      "properties": {
        "station_id": "57c65d1b-7ee7-515f-85e2-0f73f25322f6",
        "ground_truth_value": 15.405727249488752,
        "pollutant": "NO2",
        "period_key": "2024-03",
        "predicted_value": null
      }
    },
    {
      "type": "Feature",
      "geometry": {
        "type": "Point",
        "coordinates": [
          -71.794322,
          42.263955
        ]
      },
      "properties": {
        "station_id": "5828d3f0-ff8c-562e-9e48-242c1541267f",
        "ground_truth_value": 11.558495203006137,
        "pollutant": "NO2",
        "period_key": "2024-03",
        "predicted_value": null
      }
    },
    {
      "type": "Feature",
      "geometry": {
        "type": "Point",
        "coordinates": [
          -80.503806,
          43.443833
        ]
      },
      "properties": {
        "station_id": "58735606-884b-57f9-8f08-d46d94a13435",
        "ground_truth_value": 8.508174624344273,
        "pollutant": "NO2",
        "period_key": "2024-03",
        "predicted_value": null
      }
    },
    {
      "type": "Feature",
      "geometry": {
        "type": "Point",
        "coordinates": [
          104.154639,
          15.783860999999998
        ]
      },
      "properties": {
        "station_id": "59118aa8-f975-56ac-9ed1-817f54c30876",
        "ground_truth_value": 15.380161820930029,
        "pollutant": "NO2",
        "period_key": "2024-03",
        "predicted_value": null
      }
    },
    {
      "type": "Feature",
      "geometry": {
        "type": "Point",
        "coordinates": [
          -110.770111,
          39.59575
        ]
      },
      "properties": {
        "station_id": "59b9653e-4898-51e5-8347-1d57e68996d4",
        "ground_truth_value": 2.098001329243354,
        "pollutant": "NO2",
        "period_key": "2024-03",
        "predicted_value": null
      }
    },
    {
      "type": "Feature",
      "geometry": {
        "type": "Point",
        "coordinates": [
          99.96146899999998,
          8.426923
        ]
      },
      "properties": {
        "station_id": "5c4f302a-b0ff-533c-be30-a7609237d854",
        "ground_truth_value": 10.434413459750886,
        "pollutant": "NO2",
        "period_key": "2024-03",
        "predicted_value": null
      }
    },
    {
      "type": "Feature",
      "geometry": {
        "type": "Point",
        "coordinates": [
          -105.188587,
          39.912799
        ]
      },
      "properties": {
        "station_id": "5cbb6b24-d03b-57de-b473-71bd185e8e00",
        "ground_truth_value": 3.8041355241104298,
        "pollutant": "NO2",
        "period_key": "2024-03",
        "predicted_value": null
      }
    },
    {
      "type": "Feature",
      "geometry": {
        "type": "Point",
        "coordinates": [
          -123.122,
          49.282
        ]
      },
      "properties": {
        "station_id": "5d44097b-0942-57ee-bc99-8cd007ec8b44",
        "ground_truth_value": 32.755790558963874,
        "pollutant": "NO2",
        "period_key": "2024-03",
        "predicted_value": null
      }
    },
    {
      "type": "Feature",
      "geometry": {
        "type": "Point",
        "coordinates": [
          -89.290167,
          48.379389
        ]
      },
      "properties": {
        "station_id": "5df0121e-c530-55bb-9d72-7c1d4dfd1968",
        "ground_truth_value": 10.062552680714859,
        "pollutant": "NO2",
        "period_key": "2024-03",
        "predicted_value": null
      }
    },
    {
      "type": "Feature",
      "geometry": {
        "type": "Point",
        "coordinates": [
          -95.425128,
          30.350302
        ]
      },
      "properties": {
        "station_id": "5f45d5a2-9e99-5fe4-b191-7936a16ecf07",
        "ground_truth_value": 7.433165083466258,
        "pollutant": "NO2",
        "period_key": "2024-03",
        "predicted_value": null
      }
    },
    {
      "type": "Feature",
      "geometry": {
        "type": "Point",
        "coordinates": [
          -110.878067,
          32.204411
        ]
      },
      "properties": {
        "station_id": "6040e11b-a2ff-5350-b97a-6b90c86f2990",
        "ground_truth_value": 13.547631901840491,
        "pollutant": "NO2",
        "period_key": "2024-03",
        "predicted_value": null
      }
    },
    {
      "type": "Feature",
      "geometry": {
        "type": "Point",
        "coordinates": [
          -81.678449,
          41.492117
        ]
      },
      "properties": {
        "station_id": "605ed0ed-a829-54b7-8a84-8c261f9841c3",
        "ground_truth_value": 12.90250684198364,
        "pollutant": "NO2",
        "period_key": "2024-03",
        "predicted_value": null
      }
    },
    {
      "type": "Feature",
      "geometry": {
        "type": "Point",
        "coordinates": [
          -121.623271,
          36.694261
        ]
      },
      "properties": {
        "station_id": "6131e062-e83f-5a6a-bcf7-7e0a29bc6d11",
        "ground_truth_value": 4.5813255340081795,
        "pollutant": "NO2",
        "period_key": "2024-03",
        "predicted_value": null
      }
    },
    {
      "type": "Feature",
      "geometry": {
        "type": "Point",
        "coordinates": [
          -86.815,
          33.553056
        ]
      },
      "properties": {
        "station_id": "615b3171-a28e-5123-b46b-ec81c7cb1944",
        "ground_truth_value": 15.269833211820043,
        "pollutant": "NO2",
        "period_key": "2024-03",
        "predicted_value": null
      }
    },
    {
      "type": "Feature",
      "geometry": {
        "type": "Point",
        "coordinates": [
          -119.7954,
          39.521933
        ]
      },
      "properties": {
        "station_id": "6217f5b6-fc1f-592a-894b-ebaf741c0b4c",
        "ground_truth_value": 17.585264625010225,
        "pollutant": "NO2",
        "period_key": "2024-03",
        "predicted_value": null
      }
    },
    {
      "type": "Feature",
      "geometry": {
        "type": "Point",
        "coordinates": [
          -102.645864,
          47.342423
        ]
      },
      "properties": {
        "station_id": "62bccf67-3f3d-57e5-8d37-ba81c9af2ebc",
        "ground_truth_value": 4.0533141070961145,
        "pollutant": "NO2",
        "period_key": "2024-03",
        "predicted_value": null
      }
    },
    {
      "type": "Feature",
      "geometry": {
        "type": "Point",
        "coordinates": [
          -117.4924,
          33.99636
        ]
      },
      "properties": {
        "station_id": "634295c1-5ff2-53dd-94de-b68876a872d2",
        "ground_truth_value": 16.330855518139057,
        "pollutant": "NO2",
        "period_key": "2024-03",
        "predicted_value": null
      }
    },
    {
      "type": "Feature",
      "geometry": {
        "type": "Point",
        "coordinates": [
          -94.711813,
          32.378696
        ]
      },
      "properties": {
        "station_id": "63b7fd50-c3a8-5eb6-b1c0-540211b024c8",
        "ground_truth_value": 3.7161906952965236,
        "pollutant": "NO2",
        "period_key": "2024-03",
        "predicted_value": null
      }
    },
    {
      "type": "Feature",
      "geometry": {
        "type": "Point",
        "coordinates": [
          -97.69166,
          30.35386
        ]
      },
      "properties": {
        "station_id": "6405624d-340e-5a5c-a1dc-2a7f7609a88f",
        "ground_truth_value": 20.30434208586912,
        "pollutant": "NO2",
        "period_key": "2024-03",
        "predicted_value": null
      }
    },
    {
      "type": "Feature",
      "geometry": {
        "type": "Point",
        "coordinates": [
          102.098335,
          14.979536999999999
        ]
      },
      "properties": {
        "station_id": "66b1398c-06b5-5953-b6e7-58d27566c4ea",
        "ground_truth_value": 32.74011042944784,
        "pollutant": "NO2",
        "period_key": "2024-03",
        "predicted_value": null
      }
    },
    {
      "type": "Feature",
      "geometry": {
        "type": "Point",
        "coordinates": [
          -121.7734,
          38.53445
        ]
      },
      "properties": {
        "station_id": "6724100a-cd27-5c7a-b34f-8694d7cb2966",
        "ground_truth_value": 4.0250202541922295,
        "pollutant": "NO2",
        "period_key": "2024-03",
        "predicted_value": null
      }
    },
    {
      "type": "Feature",
      "geometry": {
        "type": "Point",
        "coordinates": [
          -79.977538,
          32.882289
        ]
      },
      "properties": {
        "station_id": "676a710f-c6a0-5cbf-8846-c865dbee8fa5",
        "ground_truth_value": 10.897690640838448,
        "pollutant": "NO2",
        "period_key": "2024-03",
        "predicted_value": null
      }
    },
    {
      "type": "Feature",
      "geometry": {
        "type": "Point",
        "coordinates": [
          -96.87206,
          32.676451
        ]
      },
      "properties": {
        "station_id": "68b187d5-97a0-5cb1-b3fe-b11c2d10a850",
        "ground_truth_value": 8.961194018404909,
        "pollutant": "NO2",
        "period_key": "2024-03",
        "predicted_value": null
      }
    },
    {
      "type": "Feature",
      "geometry": {
        "type": "Point",
        "coordinates": [
          -97.282099,
          32.922492
        ]
      },
      "properties": {
        "station_id": "68bd86eb-5509-5e33-82a3-10735b65e440",
        "ground_truth_value": 10.748728783231083,
        "pollutant": "NO2",
        "period_key": "2024-03",
        "predicted_value": null
      }
    },
    {
      "type": "Feature",
      "geometry": {
        "type": "Point",
        "coordinates": [
          -79.766589,
          43.669911
        ]
      },
      "properties": {
        "station_id": "69c5da3c-fa0a-5bb4-8922-3a0251c7cc50",
        "ground_truth_value": 12.107786965413,
        "pollutant": "NO2",
        "period_key": "2024-03",
        "predicted_value": null
      }
    },
    {
      "type": "Feature",
      "geometry": {
        "type": "Point",
        "coordinates": [
          -117.047345,
          32.552824
        ]
      },
      "properties": {
        "station_id": "6ac62333-b999-5033-bc8d-17850eff0859",
        "ground_truth_value": 20.475397873169737,
        "pollutant": "NO2",
        "period_key": "2024-03",
        "predicted_value": null
      }
    },
    {
      "type": "Feature",
      "geometry": {
        "type": "Point",
        "coordinates": [
          -79.862449,
          43.52965
        ]
      },
      "properties": {
        "station_id": "6ac710eb-017e-59bb-94a1-6843c11ee6c5",
        "ground_truth_value": 13.40651073619632,
        "pollutant": "NO2",
        "period_key": "2024-03",
        "predicted_value": null
      }
    },
    {
      "type": "Feature",
      "geometry": {
        "type": "Point",
        "coordinates": [
          -95.294722,
          29.686389
        ]
      },
      "properties": {
        "station_id": "6cf07cf3-383e-5937-b418-cf3b186f60ac",
        "ground_truth_value": 7.975697878323109,
        "pollutant": "NO2",
        "period_key": "2024-03",
        "predicted_value": null
      }
    },
    {
      "type": "Feature",
      "geometry": {
        "type": "Point",
        "coordinates": [
          -122.4934,
          52.96936
        ]
      },
      "properties": {
        "station_id": "6d4af12e-6a0d-5052-a613-a89861fa2663",
        "ground_truth_value": 5.29306632879879,
        "pollutant": "NO2",
        "period_key": "2024-03",
        "predicted_value": null
      }
    },
    {
      "type": "Feature",
      "geometry": {
        "type": "Point",
        "coordinates": [
          101.732734,
          17.48462
        ]
      },
      "properties": {
        "station_id": "6d4d022e-603a-5778-8f7d-c8f313456858",
        "ground_truth_value": 7.5264621676891625,
        "pollutant": "NO2",
        "period_key": "2024-03",
        "predicted_value": null
      }
    },
    {
      "type": "Feature",
      "geometry": {
        "type": "Point",
        "coordinates": [
          -115.175654,
          36.139707
        ]
      },
      "properties": {
        "station_id": "6d727561-590d-56f5-842c-818fb68ef5e3",
        "ground_truth_value": 26.129914121206546,
        "pollutant": "NO2",
        "period_key": "2024-03",
        "predicted_value": null
      }
    },
    {
      "type": "Feature",
      "geometry": {
        "type": "Point",
        "coordinates": [
          -73.239648,
          42.452299
        ]
      },
      "properties": {
        "station_id": "6e706684-73e2-5beb-b374-731dcdadedc5",
        "ground_truth_value": 8.917220663190184,
        "pollutant": "NO2",
        "period_key": "2024-03",
        "predicted_value": null
      }
    },
    {
      "type": "Feature",
      "geometry": {
        "type": "Point",
        "coordinates": [
          -95.673951,
          30.039524
        ]
      },
      "properties": {
        "station_id": "6ec7faf2-a6ab-502a-8cff-bc07d667a36c",
        "ground_truth_value": 3.190905729304703,
        "pollutant": "NO2",
        "period_key": "2024-03",
        "predicted_value": null
      }
    },
    {
      "type": "Feature",
      "geometry": {
        "type": "Point",
        "coordinates": [
          -101.428056,
          47.185833
        ]
      },
      "properties": {
        "station_id": "6fb84191-0cd9-553d-89a2-7bf8893042d6",
        "ground_truth_value": 3.2144259235787325,
        "pollutant": "NO2",
        "period_key": "2024-03",
        "predicted_value": null
      }
    },
    {
      "type": "Feature",
      "geometry": {
        "type": "Point",
        "coordinates": [
          -123.15221999999997,
          49.18639000000001
        ]
      },
      "properties": {
        "station_id": "70de8543-9416-5180-8567-764f251266fc",
        "ground_truth_value": 21.5209777607362,
        "pollutant": "NO2",
        "period_key": "2024-03",
        "predicted_value": null
      }
    },
    {
      "type": "Feature",
      "geometry": {
        "type": "Point",
        "coordinates": [
          -84.538375,
          39.146025
        ]
      },
      "properties": {
        "station_id": "710f9e1b-7b7f-5494-813b-e5bd37821606",
        "ground_truth_value": 31.629061610715745,
        "pollutant": "NO2",
        "period_key": "2024-03",
        "predicted_value": null
      }
    },
    {
      "type": "Feature",
      "geometry": {
        "type": "Point",
        "coordinates": [
          -101.766944,
          47.298611
        ]
      },
      "properties": {
        "station_id": "72571f53-2124-5c67-9c7d-e89b2de66b56",
        "ground_truth_value": 5.127402351738241,
        "pollutant": "NO2",
        "period_key": "2024-03",
        "predicted_value": null
      }
    },
    {
      "type": "Feature",
      "geometry": {
        "type": "Point",
        "coordinates": [
          -94.004746,
          29.979958
        ]
      },
      "properties": {
        "station_id": "72611420-0bb1-546f-9848-da17c965b5f6",
        "ground_truth_value": 8.373189161554192,
        "pollutant": "NO2",
        "period_key": "2024-03",
        "predicted_value": null
      }
    },
    {
      "type": "Feature",
      "geometry": {
        "type": "Point",
        "coordinates": [
          99.525425,
          16.475374
        ]
      },
      "properties": {
        "station_id": "72cfedb6-12f5-57b7-b3ed-93bdff76c96e",
        "ground_truth_value": 17.40494376278119,
        "pollutant": "NO2",
        "period_key": "2024-03",
        "predicted_value": null
      }
    },
    {
      "type": "Feature",
      "geometry": {
        "type": "Point",
        "coordinates": [
          -94.861289,
          29.254474
        ]
      },
      "properties": {
        "station_id": "7339b8fc-dbee-5bca-88dc-89aaf8b7e2c7",
        "ground_truth_value": 5.754606905173825,
        "pollutant": "NO2",
        "period_key": "2024-03",
        "predicted_value": null
      }
    },
    {
      "type": "Feature",
      "geometry": {
        "type": "Point",
        "coordinates": [
          102.510442,
          13.691047
        ]
      },
      "properties": {
        "station_id": "733e14dc-d581-577e-a60f-91f7a7514523",
        "ground_truth_value": 9.219916155419224,
        "pollutant": "NO2",
        "period_key": "2024-03",
        "predicted_value": null
      }
    },
    {
      "type": "Feature",
      "geometry": {
        "type": "Point",
        "coordinates": [
          -97.314847,
          37.702066
        ]
      },
      "properties": {
        "station_id": "738440ed-d6f7-5b70-beb7-dc9cbf4b1cb5",
        "ground_truth_value": 9.125835378323108,
        "pollutant": "NO2",
        "period_key": "2024-03",
        "predicted_value": null
      }
    },
    {
      "type": "Feature",
      "geometry": {
        "type": "Point",
        "coordinates": [
          -104.262726,
          32.380118
        ]
      },
      "properties": {
        "station_id": "7398e7ff-a179-51bc-ad48-89abe54f39f1",
        "ground_truth_value": 5.4566850715746416,
        "pollutant": "NO2",
        "period_key": "2024-03",
        "predicted_value": null
      }
    },
    {
      "type": "Feature",
      "geometry": {
        "type": "Point",
        "coordinates": [
          -112.14256,
          33.48378
        ]
      },
      "properties": {
        "station_id": "73c2e65e-75d8-56b6-bc44-376ee0817aa4",
        "ground_truth_value": 26.855784948813906,
        "pollutant": "NO2",
        "period_key": "2024-03",
        "predicted_value": null
      }
    },
    {
      "type": "Feature",
      "geometry": {
        "type": "Point",
        "coordinates": [
          -106.647503,
          35.063569
        ]
      },
      "properties": {
        "station_id": "73c9a7e6-8b10-5731-985c-0bf930682c0d",
        "ground_truth_value": 15.593888803680981,
        "pollutant": "NO2",
        "period_key": "2024-03",
        "predicted_value": null
      }
    },
    {
      "type": "Feature",
      "geometry": {
        "type": "Point",
        "coordinates": [
          -122.150391,
          52.14428
        ]
      },
      "properties": {
        "station_id": "740783b9-c5ab-5d70-9029-2ec6cdd7bbde",
        "ground_truth_value": 10.046190806437272,
        "pollutant": "NO2",
        "period_key": "2024-03",
        "predicted_value": null
      }
    },
    {
      "type": "Feature",
      "geometry": {
        "type": "Point",
        "coordinates": [
          -83.941606,
          35.63348
        ]
      },
      "properties": {
        "station_id": "7462053c-35be-5565-976b-bdf865b0fbe4",
        "ground_truth_value": 1.513844376175869,
        "pollutant": "NO2",
        "period_key": "2024-03",
        "predicted_value": null
      }
    },
    {
      "type": "Feature",
      "geometry": {
        "type": "Point",
        "coordinates": [
          -95.220582,
          29.767997
        ]
      },
      "properties": {
        "station_id": "75969ec2-d53b-5f4c-9c8d-8ce7f5fa8bba",
        "ground_truth_value": 21.202386380408996,
        "pollutant": "NO2",
        "period_key": "2024-03",
        "predicted_value": null
      }
    },
    {
      "type": "Feature",
      "geometry": {
        "type": "Point",
        "coordinates": [
          -114.9833,
          53.22
        ]
      },
      "properties": {
        "station_id": "76cd53bd-9517-5f8a-981e-511270f81cca",
        "ground_truth_value": 11.53512136569752,
        "pollutant": "NO2",
        "period_key": "2024-03",
        "predicted_value": null
      }
    },
    {
      "type": "Feature",
      "geometry": {
        "type": "Point",
        "coordinates": [
          -83.431948,
          42.393574
        ]
      },
      "properties": {
        "station_id": "7792a725-054f-5ec7-8ab3-bf6f0e569b7f",
        "ground_truth_value": 22.186700865930472,
        "pollutant": "NO2",
        "period_key": "2024-03",
        "predicted_value": null
      }
    },
    {
      "type": "Feature",
      "geometry": {
        "type": "Point",
        "coordinates": [
          -74.429439,
          40.462182
        ]
      },
      "properties": {
        "station_id": "77931181-e07e-50e9-9ed2-c82a1d0793b1",
        "ground_truth_value": 11.281852559570552,
        "pollutant": "NO2",
        "period_key": "2024-03",
        "predicted_value": null
      }
    },
    {
      "type": "Feature",
      "geometry": {
        "type": "Point",
        "coordinates": [
          -43.32690000000001,
          -22.831600000000005
        ]
      },
      "properties": {
        "station_id": "794532d8-c6ff-5da9-ada3-51b7a6c633f9",
        "ground_truth_value": 12.231874999999999,
        "pollutant": "NO2",
        "period_key": "2024-03",
        "predicted_value": null
      }
    },
    {
      "type": "Feature",
      "geometry": {
        "type": "Point",
        "coordinates": [
          -106.662796,
          52.136055
        ]
      },
      "properties": {
        "station_id": "7abcbcaa-3e96-599b-9632-912e01f8c288",
        "ground_truth_value": 15.092124659168373,
        "pollutant": "NO2",
        "period_key": "2024-03",
        "predicted_value": null
      }
    },
    {
      "type": "Feature",
      "geometry": {
        "type": "Point",
        "coordinates": [
          -123.277,
          49.368
        ]
      },
      "properties": {
        "station_id": "7b98bbe2-80b3-59ea-8ac9-4f6bf35c9919",
        "ground_truth_value": 19.945124744376272,
        "pollutant": "NO2",
        "period_key": "2024-03",
        "predicted_value": null
      }
    },
    {
      "type": "Feature",
      "geometry": {
        "type": "Point",
        "coordinates": [
          -106.50974,
          43.87483
        ]
      },
      "properties": {
        "station_id": "7d978a80-fa20-5fbd-9fe8-72ec8d90bad2",
        "ground_truth_value": 0.7117417765030675,
        "pollutant": "NO2",
        "period_key": "2024-03",
        "predicted_value": null
      }
    },
    {
      "type": "Feature",
      "geometry": {
        "type": "Point",
        "coordinates": [
          -109.753,
          42.719
        ]
      },
      "properties": {
        "station_id": "7eaa60a5-53d8-5423-8b1f-87dc9a5c15b2",
        "ground_truth_value": 1.4807505220245398,
        "pollutant": "NO2",
        "period_key": "2024-03",
        "predicted_value": null
      }
    },
    {
      "type": "Feature",
      "geometry": {
        "type": "Point",
        "coordinates": [
          -43.4711,
          -22.8879
        ]
      },
      "properties": {
        "station_id": "7fbd3f32-5e25-5611-962d-09947fd9bf97",
        "ground_truth_value": 13.635000000000002,
        "pollutant": "NO2",
        "period_key": "2024-03",
        "predicted_value": null
      }
    },
    {
      "type": "Feature",
      "geometry": {
        "type": "Point",
        "coordinates": [
          -109.906796,
          40.483598
        ]
      },
      "properties": {
        "station_id": "805240bf-bafe-5c6c-8ce1-af8cb1750bf9",
        "ground_truth_value": 1.5366533197750512,
        "pollutant": "NO2",
        "period_key": "2024-03",
        "predicted_value": null
      }
    },
    {
      "type": "Feature",
      "geometry": {
        "type": "Point",
        "coordinates": [
          -76.84611,
          39.14313
        ]
      },
      "properties": {
        "station_id": "80b3daba-63b3-5286-a8da-d56969490bde",
        "ground_truth_value": 21.411217481329246,
        "pollutant": "NO2",
        "period_key": "2024-03",
        "predicted_value": null
      }
    },
    {
      "type": "Feature",
      "geometry": {
        "type": "Point",
        "coordinates": [
          100.16243330000002,
          18.1283666
        ]
      },
      "properties": {
        "station_id": "814c1d40-afb9-562c-ac95-b2388b6a2c5a",
        "ground_truth_value": 16.164788064696044,
        "pollutant": "NO2",
        "period_key": "2024-03",
        "predicted_value": null
      }
    },
    {
      "type": "Feature",
      "geometry": {
        "type": "Point",
        "coordinates": [
          -106.5852,
          35.1343
        ]
      },
      "properties": {
        "station_id": "817c5695-2ff6-5ab1-8d6f-75c20346c0b6",
        "ground_truth_value": 12.206980828220859,
        "pollutant": "NO2",
        "period_key": "2024-03",
        "predicted_value": null
      }
    },
    {
      "type": "Feature",
      "geometry": {
        "type": "Point",
        "coordinates": [
          104.7192,
          16.54257
        ]
      },
      "properties": {
        "station_id": "819ff90d-ce09-54c3-9109-5677b4ac27fa",
        "ground_truth_value": 13.547631901840496,
        "pollutant": "NO2",
        "period_key": "2024-03",
        "predicted_value": null
      }
    },
    {
      "type": "Feature",
      "geometry": {
        "type": "Point",
        "coordinates": [
          -80.224501,
          36.11094
        ]
      },
      "properties": {
        "station_id": "8205f934-19a8-56e8-b85e-19238cbcbd4c",
        "ground_truth_value": 8.902393532719836,
        "pollutant": "NO2",
        "period_key": "2024-03",
        "predicted_value": null
      }
    },
    {
      "type": "Feature",
      "geometry": {
        "type": "Point",
        "coordinates": [
          -95.38769,
          29.81453
        ]
      },
      "properties": {
        "station_id": "826da502-d52c-524a-a9af-b74b1278f211",
        "ground_truth_value": 25.55861048390593,
        "pollutant": "NO2",
        "period_key": "2024-03",
        "predicted_value": null
      }
    },
    {
      "type": "Feature",
      "geometry": {
        "type": "Point",
        "coordinates": [
          -73.336667,
          41.118333
        ]
      },
      "properties": {
        "station_id": "82a75a4b-0e30-5526-9b12-10c3e38d04de",
        "ground_truth_value": 9.760880623721881,
        "pollutant": "NO2",
        "period_key": "2024-03",
        "predicted_value": null
      }
    },
    {
      "type": "Feature",
      "geometry": {
        "type": "Point",
        "coordinates": [
          -96.317687,
          32.564968
        ]
      },
      "properties": {
        "station_id": "82e33efc-17b7-5fc0-8664-599b1b0e11e7",
        "ground_truth_value": 5.6683668200409,
        "pollutant": "NO2",
        "period_key": "2024-03",
        "predicted_value": null
      }
    },
    {
      "type": "Feature",
      "geometry": {
        "type": "Point",
        "coordinates": [
          -89.809739,
          39.396075
        ]
      },
      "properties": {
        "station_id": "83e7469e-1594-5525-a544-c7ca0110fd2d",
        "ground_truth_value": 3.5907490319631905,
        "pollutant": "NO2",
        "period_key": "2024-03",
        "predicted_value": null
      }
    },
    {
      "type": "Feature",
      "geometry": {
        "type": "Point",
        "coordinates": [
          -99.972147222222,
          20.388888888889
        ]
      },
      "properties": {
        "station_id": "86247cc9-0dfe-5502-b4de-6b07c0b886a4",
        "ground_truth_value": 32.04191857550903,
        "pollutant": "NO2",
        "period_key": "2024-03",
        "predicted_value": null
      }
    },
    {
      "type": "Feature",
      "geometry": {
        "type": "Point",
        "coordinates": [
          98.391283,
          7.884488
        ]
      },
      "properties": {
        "station_id": "86da3758-83b4-5cd0-b556-9a5ff788ab94",
        "ground_truth_value": 10.035282890252216,
        "pollutant": "NO2",
        "period_key": "2024-03",
        "predicted_value": null
      }
    },
    {
      "type": "Feature",
      "geometry": {
        "type": "Point",
        "coordinates": [
          -111.901851,
          40.662961
        ]
      },
      "properties": {
        "station_id": "8700fd10-47cb-5462-8a97-597fc0b62245",
        "ground_truth_value": 23.081151274785277,
        "pollutant": "NO2",
        "period_key": "2024-03",
        "predicted_value": null
      }
    },
    {
      "type": "Feature",
      "geometry": {
        "type": "Point",
        "coordinates": [
          -78.9125,
          43.95222
        ]
      },
      "properties": {
        "station_id": "87be4ebc-aa65-5a17-a38b-f4723250ff6a",
        "ground_truth_value": 4.663134169111765,
        "pollutant": "NO2",
        "period_key": "2024-03",
        "predicted_value": null
      }
    },
    {
      "type": "Feature",
      "geometry": {
        "type": "Point",
        "coordinates": [
          -75.557534,
          39.739441
        ]
      },
      "properties": {
        "station_id": "8875c58c-60fe-5b6f-90e8-df5cac1a8997",
        "ground_truth_value": 16.244613551390593,
        "pollutant": "NO2",
        "period_key": "2024-03",
        "predicted_value": null
      }
    },
    {
      "type": "Feature",
      "geometry": {
        "type": "Point",
        "coordinates": [
          -110.7499,
          55.9033
        ]
      },
      "properties": {
        "station_id": "89c5cd5c-306a-5005-9eed-a5e32cac5180",
        "ground_truth_value": 3.0269467413532514,
        "pollutant": "NO2",
        "period_key": "2024-03",
        "predicted_value": null
      }
    },
    {
      "type": "Feature",
      "geometry": {
        "type": "Point",
        "coordinates": [
          120.53054199999998,
          22.883583
        ]
      },
      "properties": {
        "station_id": "89ecccec-5846-55b1-814b-2ef78743a3b8",
        "ground_truth_value": 12.238341034213862,
        "pollutant": "NO2",
        "period_key": "2024-03",
        "predicted_value": null
      }
    },
    {
      "type": "Feature",
      "geometry": {
        "type": "Point",
        "coordinates": [
          120.78892799999998,
          21.958069
        ]
      },
      "properties": {
        "station_id": "8b073b2b-5df9-5219-9389-73962d5be0e4",
        "ground_truth_value": 2.0227367762601904,
        "pollutant": "NO2",
        "period_key": "2024-03",
        "predicted_value": null
      }
    },
    {
      "type": "Feature",
      "geometry": {
        "type": "Point",
        "coordinates": [
          -119.457914,
          34.403052
        ]
      },
      "properties": {
        "station_id": "8c3eb05d-5df1-5139-86cc-c9c57ef86d88",
        "ground_truth_value": 0.44800325245398775,
        "pollutant": "NO2",
        "period_key": "2024-03",
        "predicted_value": null
      }
    },
    {
      "type": "Feature",
      "geometry": {
        "type": "Point",
        "coordinates": [
          -80.264167,
          43.551611
        ]
      },
      "properties": {
        "station_id": "8d3aef9b-0909-5068-985e-c6d2705b1bc7",
        "ground_truth_value": 5.726655997154798,
        "pollutant": "NO2",
        "period_key": "2024-03",
        "predicted_value": null
      }
    },
    {
      "type": "Feature",
      "geometry": {
        "type": "Point",
        "coordinates": [
          100.086095,
          14.476214
        ]
      },
      "properties": {
        "station_id": "8d8f943a-d304-5bdc-b129-848667860614",
        "ground_truth_value": 5.815902584123444,
        "pollutant": "NO2",
        "period_key": "2024-03",
        "predicted_value": null
      }
    },
    {
      "type": "Feature",
      "geometry": {
        "type": "Point",
        "coordinates": [
          -80.874084,
          35.213171
        ]
      },
      "properties": {
        "station_id": "8e06b891-4d0f-518f-9ecd-94108dce081b",
        "ground_truth_value": 22.947868919488755,
        "pollutant": "NO2",
        "period_key": "2024-03",
        "predicted_value": null
      }
    },
    {
      "type": "Feature",
      "geometry": {
        "type": "Point",
        "coordinates": [
          -80.316442,
          40.747796
        ]
      },
      "properties": {
        "station_id": "8e07f811-3435-5c4b-8fd8-ba7d54193969",
        "ground_truth_value": 13.402233824069532,
        "pollutant": "NO2",
        "period_key": "2024-03",
        "predicted_value": null
      }
    },
    {
      "type": "Feature",
      "geometry": {
        "type": "Point",
        "coordinates": [
          -110.9823,
          32.29515
        ]
      },
      "properties": {
        "station_id": "8f8c6703-f211-55c1-a317-66e10d68fe34",
        "ground_truth_value": 10.635607938466258,
        "pollutant": "NO2",
        "period_key": "2024-03",
        "predicted_value": null
      }
    },
    {
      "type": "Feature",
      "geometry": {
        "type": "Point",
        "coordinates": [
          -109.560498,
          42.373499
        ]
      },
      "properties": {
        "station_id": "8fad078e-7a9a-5b90-b53f-559d6b695d77",
        "ground_truth_value": 1.4347318507157463,
        "pollutant": "NO2",
        "period_key": "2024-03",
        "predicted_value": null
      }
    },
    {
      "type": "Feature",
      "geometry": {
        "type": "Point",
        "coordinates": [
          -106.385,
          40.5506
        ]
      },
      "properties": {
        "station_id": "90cbb5cd-406e-5045-b4af-e45f3b09b6b2",
        "ground_truth_value": 2.3263617178732106,
        "pollutant": "NO2",
        "period_key": "2024-03",
        "predicted_value": null
      }
    },
    {
      "type": "Feature",
      "geometry": {
        "type": "Point",
        "coordinates": [
          -75.623056,
          41.442778
        ]
      },
      "properties": {
        "station_id": "91862eb1-bced-5153-b0d3-307f4fc79bda",
        "ground_truth_value": 16.770920234621677,
        "pollutant": "NO2",
        "period_key": "2024-03",
        "predicted_value": null
      }
    },
    {
      "type": "Feature",
      "geometry": {
        "type": "Point",
        "coordinates": [
          -100.76821,
          46.825425
        ]
      },
      "properties": {
        "station_id": "91b83193-5315-5262-a8ab-7bea3c939b39",
        "ground_truth_value": 6.585654396728017,
        "pollutant": "NO2",
        "period_key": "2024-03",
        "predicted_value": null
      }
    },
    {
      "type": "Feature",
      "geometry": {
        "type": "Point",
        "coordinates": [
          -105.75203,
          53.201694
        ]
      },
      "properties": {
        "station_id": "920abbfb-4d66-5114-b9e8-f92fa98fd957",
        "ground_truth_value": 11.066251405930473,
        "pollutant": "NO2",
        "period_key": "2024-03",
        "predicted_value": null
      }
    },
    {
      "type": "Feature",
      "geometry": {
        "type": "Point",
        "coordinates": [
          100.62854800000001,
          14.800032
        ]
      },
      "properties": {
        "station_id": "920c444e-c2c1-5698-8102-a5447d84c08f",
        "ground_truth_value": 20.697770961145196,
        "pollutant": "NO2",
        "period_key": "2024-03",
        "predicted_value": null
      }
    },
    {
      "type": "Feature",
      "geometry": {
        "type": "Point",
        "coordinates": [
          8.2519,
          58.38846
        ]
      },
      "properties": {
        "station_id": "92c20b8e-a09a-5c1b-a182-0e73d2449e1f",
        "ground_truth_value": 0.788,
        "pollutant": "NO2",
        "period_key": "2024-03",
        "predicted_value": null
      }
    },
    {
      "type": "Feature",
      "geometry": {
        "type": "Point",
        "coordinates": [
          -93.284906,
          30.262347
        ]
      },
      "properties": {
        "station_id": "931dfe46-b8f4-558a-b95b-d595645950dd",
        "ground_truth_value": 8.216388493599181,
        "pollutant": "NO2",
        "period_key": "2024-03",
        "predicted_value": null
      }
    },
    {
      "type": "Feature",
      "geometry": {
        "type": "Point",
        "coordinates": [
          120.561175,
          22.523108000000004
        ]
      },
      "properties": {
        "station_id": "93afd295-78da-5999-ae46-cd39ed0d53e7",
        "ground_truth_value": 14.41787913133598,
        "pollutant": "NO2",
        "period_key": "2024-03",
        "predicted_value": null
      }
    },
    {
      "type": "Feature",
      "geometry": {
        "type": "Point",
        "coordinates": [
          -118.205,
          33.901389
        ]
      },
      "properties": {
        "station_id": "93b45142-4b1d-5b97-a7aa-b98fa5c3af15",
        "ground_truth_value": 20.854571629100203,
        "pollutant": "NO2",
        "period_key": "2024-03",
        "predicted_value": null
      }
    },
    {
      "type": "Feature",
      "geometry": {
        "type": "Point",
        "coordinates": [
          -77.013178,
          38.921847
        ]
      },
      "properties": {
        "station_id": "948194ac-666a-5597-96ff-2fb302441137",
        "ground_truth_value": 14.762841312126788,
        "pollutant": "NO2",
        "period_key": "2024-03",
        "predicted_value": null
      }
    },
    {
      "type": "Feature",
      "geometry": {
        "type": "Point",
        "coordinates": [
          -115.13977,
          36.174365
        ]
      },
      "properties": {
        "station_id": "94844ec6-6a2d-5589-99dd-343d39bf1ced",
        "ground_truth_value": 31.09574214635992,
        "pollutant": "NO2",
        "period_key": "2024-03",
        "predicted_value": null
      }
    },
    {
      "type": "Feature",
      "geometry": {
        "type": "Point",
        "coordinates": [
          -74.126081,
          40.67025
        ]
      },
      "properties": {
        "station_id": "94d7798d-273b-5c26-bdd6-b891c92279b9",
        "ground_truth_value": 21.977269529652354,
        "pollutant": "NO2",
        "period_key": "2024-03",
        "predicted_value": null
      }
    },
    {
      "type": "Feature",
      "geometry": {
        "type": "Point",
        "coordinates": [
          120.21947897,
          22.98928311
        ]
      },
      "properties": {
        "station_id": "94ddb19f-f587-5c65-9c11-a180845d8116",
        "ground_truth_value": 23.018429872031362,
        "pollutant": "NO2",
        "period_key": "2024-03",
        "predicted_value": null
      }
    },
    {
      "type": "Feature",
      "geometry": {
        "type": "Point",
        "coordinates": [
          -106.65739,
          35.01708
        ]
      },
      "properties": {
        "station_id": "957d0fe6-924d-5315-a72d-8693fd8e1015",
        "ground_truth_value": 7.3775003100818,
        "pollutant": "NO2",
        "period_key": "2024-03",
        "predicted_value": null
      }
    },
    {
      "type": "Feature",
      "geometry": {
        "type": "Point",
        "coordinates": [
          -96.75355,
          32.92118
        ]
      },
      "properties": {
        "station_id": "95a4d069-1c67-577a-8923-26b33227a7a2",
        "ground_truth_value": 19.167936616094067,
        "pollutant": "NO2",
        "period_key": "2024-03",
        "predicted_value": null
      }
    },
    {
      "type": "Feature",
      "geometry": {
        "type": "Point",
        "coordinates": [
          -111.038056,
          56.448889
        ]
      },
      "properties": {
        "station_id": "96bd0afa-2a78-518e-afff-6374b1a7aef5",
        "ground_truth_value": 3.681421712456657,
        "pollutant": "NO2",
        "period_key": "2024-03",
        "predicted_value": null
      }
    },
    {
      "type": "Feature",
      "geometry": {
        "type": "Point",
        "coordinates": [
          -104.9886,
          39.7861
        ]
      },
      "properties": {
        "station_id": "97b47aa1-c8ba-54f1-b93c-30a9c630d98a",
        "ground_truth_value": 43.67393279273006,
        "pollutant": "NO2",
        "period_key": "2024-03",
        "predicted_value": null
      }
    },
    {
      "type": "Feature",
      "geometry": {
        "type": "Point",
        "coordinates": [
          -122.960402,
          50.144285
        ]
      },
      "properties": {
        "station_id": "97d08fea-4730-5605-8792-cc020402a8b8",
        "ground_truth_value": 7.0356059393616075,
        "pollutant": "NO2",
        "period_key": "2024-03",
        "predicted_value": null
      }
    },
    {
      "type": "Feature",
      "geometry": {
        "type": "Point",
        "coordinates": [
          -112.233973,
          41.945874
        ]
      },
      "properties": {
        "station_id": "98a88be8-d121-57af-9a39-df286a8b45e8",
        "ground_truth_value": 0.2867224578936605,
        "pollutant": "NO2",
        "period_key": "2024-03",
        "predicted_value": null
      }
    },
    {
      "type": "Feature",
      "geometry": {
        "type": "Point",
        "coordinates": [
          -103.273777,
          44.087397
        ]
      },
      "properties": {
        "station_id": "9aabef7d-9c05-5665-a0f0-a8b7360a24ad",
        "ground_truth_value": 10.192084812617587,
        "pollutant": "NO2",
        "period_key": "2024-03",
        "predicted_value": null
      }
    },
    {
      "type": "Feature",
      "geometry": {
        "type": "Point",
        "coordinates": [
          -80.039269,
          45.338261
        ]
      },
      "properties": {
        "station_id": "9acb916b-8306-592a-8aae-d8272fb0693e",
        "ground_truth_value": 1.782583144979012,
        "pollutant": "NO2",
        "period_key": "2024-03",
        "predicted_value": null
      }
    },
    {
      "type": "Feature",
      "geometry": {
        "type": "Point",
        "coordinates": [
          -111.987871,
          41.303614
        ]
      },
      "properties": {
        "station_id": "9ade7188-f8e4-5a33-b490-7de09f900561",
        "ground_truth_value": 10.395925869120655,
        "pollutant": "NO2",
        "period_key": "2024-03",
        "predicted_value": null
      }
    },
    {
      "type": "Feature",
      "geometry": {
        "type": "Point",
        "coordinates": [
          -111.872222,
          40.736389
        ]
      },
      "properties": {
        "station_id": "9b05b148-f44f-5401-a0aa-ba32b8a8ef32",
        "ground_truth_value": 18.19678967613497,
        "pollutant": "NO2",
        "period_key": "2024-03",
        "predicted_value": null
      }
    },
    {
      "type": "Feature",
      "geometry": {
        "type": "Point",
        "coordinates": [
          -79.702278,
          43.486917
        ]
      },
      "properties": {
        "station_id": "9c2cdde1-c045-58fc-9b31-623e1f9cf1ea",
        "ground_truth_value": 11.207883880145818,
        "pollutant": "NO2",
        "period_key": "2024-03",
        "predicted_value": null
      }
    },
    {
      "type": "Feature",
      "geometry": {
        "type": "Point",
        "coordinates": [
          -79.38908,
          43.64543
        ]
      },
      "properties": {
        "station_id": "9c9f5c98-f583-54d4-937f-02c5edbb332c",
        "ground_truth_value": 24.0129983445321,
        "pollutant": "NO2",
        "period_key": "2024-03",
        "predicted_value": null
      }
    },
    {
      "type": "Feature",
      "geometry": {
        "type": "Point",
        "coordinates": [
          -106.36501,
          42.82231
        ]
      },
      "properties": {
        "station_id": "9cb6ce99-8def-521b-ad6e-e2c9cca1a57c",
        "ground_truth_value": 6.225010790654396,
        "pollutant": "NO2",
        "period_key": "2024-03",
        "predicted_value": null
      }
    },