{
  "type": "FeatureCollection",
  "features": [
    {
      "type": "Feature",
      "geometry": {
        "type": "Point",
        "coordinates": [
          19.25525,
          42.42021
        ]
      },
      "properties": {
        "station_id": "00567d5d-753b-5e57-815d-c1f14f6c0627",
        "ground_truth_value": 25.5,
        "pollutant": "PM10",
        "period_key": "2024-09",
        "predicted_value": null
      }
    },
    {
      "type": "Feature",
      "geometry": {
        "type": "Point",
        "coordinates": [
          -82.834973,
          38.588034
        ]
      },
      "properties": {
        "station_id": "0059d65f-bbd9-5797-9bfa-fb45090cdcc7",
        "ground_truth_value": 12.0,
        "pollutant": "PM10",
        "period_key": "2024-09",
        "predicted_value": null
      }
    },
    {
      "type": "Feature",
      "geometry": {
        "type": "Point",
        "coordinates": [
          -93.207615,
          45.13768
        ]
      },
      "properties": {
        "station_id": "008de6fa-8aea-55d7-9cf0-1e9dcfb0769d",
        "ground_truth_value": 21.0,
        "pollutant": "PM10",
        "period_key": "2024-09",
        "predicted_value": null
      }
    },
    {
      "type": "Feature",
      "geometry": {
        "type": "Point",
        "coordinates": [
          12.50895,
          41.88307
        ]
      },
      "properties": {
        "station_id": "009cda23-465b-501e-bbbf-3a1df68da2c3",
        "ground_truth_value": 20.35,
        "pollutant": "PM10",
        "period_key": "2024-09",
        "predicted_value": null
      }
    },
    {
      "type": "Feature",
      "geometry": {
        "type": "Point",
        "coordinates": [
          22.21024,
          51.28493
        ]
      },
      "properties": {
        "station_id": "010359fb-a7ad-56d4-9daf-e4d532f9f129",
        "ground_truth_value": 26.7,
        "pollutant": "PM10",
        "period_key": "2024-09",
        "predicted_value": null
      }
    },
    {
      "type": "Feature",
      "geometry": {
        "type": "Point",
        "coordinates": [
          126.56506,
          33.246244
        ]
      },
      "properties": {
        "station_id": "01643f0b-4f16-53e6-851f-c6060400f1c2",
        "ground_truth_value": 21.6875,
        "pollutant": "PM10",
        "period_key": "2024-09",
        "predicted_value": null
      }
    },
    {
      "type": "Feature",
      "geometry": {
        "type": "Point",
        "coordinates": [
          -72.001256,
          -14.008673
        ]
      },
      "properties": {
        "station_id": "01e84056-0756-571d-ba5f-5211d2033a37",
        "ground_truth_value": 76.57708333333333,
        "pollutant": "PM10",
        "period_key": "2024-09",
        "predicted_value": null
      }
    },
    {
      "type": "Feature",
      "geometry": {
        "type": "Point",
        "coordinates": [
          12.94474,
          57.72079
        ]
      },
      "properties": {
        "station_id": "023f34d0-604a-5845-b646-b0ea2a4cf955",
        "ground_truth_value": 15.2,
        "pollutant": "PM10",
        "period_key": "2024-09",
        "predicted_value": null
      }
    },
    {
      "type": "Feature",
      "geometry": {
        "type": "Point",
        "coordinates": [
          -91.788991,
          39.474976
        ]
      },
      "properties": {
        "station_id": "029bcf8f-6b7f-556c-9a39-9c45a0bcbfd2",
        "ground_truth_value": 14.0,
        "pollutant": "PM10",
        "period_key": "2024-09",
        "predicted_value": null
      }
    },
    {
      "type": "Feature",
      "geometry": {
        "type": "Point",
        "coordinates": [
          14.34173,
          49.19783
        ]
      },
      "properties": {
        "station_id": "02a7afcd-d695-572a-834b-fac773cafe11",
        "ground_truth_value": 9.45,
        "pollutant": "PM10",
        "period_key": "2024-09",
        "predicted_value": null
      }
    },
    {
      "type": "Feature",
      "geometry": {
        "type": "Point",
        "coordinates": [
          -106.613815,
          35.19324
        ]
      },
      "properties": {
        "station_id": "02b6253e-5c41-52f0-a22d-ddf0a9ea5ab3",
        "ground_truth_value": 32.0,
        "pollutant": "PM10",
        "period_key": "2024-09",
        "predicted_value": null
      }
    },
    {
      "type": "Feature",
      "geometry": {
        "type": "Point",
        "coordinates": [
          -105.494,
          44.33763
        ]
      },
      "properties": {
        "station_id": "02d58c5f-ff8a-536e-8072-bbcfbed03ce1",
        "ground_truth_value": 30.0,
        "pollutant": "PM10",
        "period_key": "2024-09",
        "predicted_value": null
      }
    },
    {
      "type": "Feature",
      "geometry": {
        "type": "Point",
        "coordinates": [
          18.65572,
          50.23317
        ]
      },
      "properties": {
        "station_id": "02e3ce12-0ea6-594b-aa86-76d6e03a08c1",
        "ground_truth_value": 30.7,
        "pollutant": "PM10",
        "period_key": "2024-09",
        "predicted_value": null
      }
    },
    {
      "type": "Feature",
      "geometry": {
        "type": "Point",
        "coordinates": [
          16.24376,
          50.43836
        ]
      },
      "properties": {
        "station_id": "036c9f0f-903e-51f3-8251-e7015a3deb5a",
        "ground_truth_value": 19.1,
        "pollutant": "PM10",
        "period_key": "2024-09",
        "predicted_value": null
      }
    },
    {
      "type": "Feature",
      "geometry": {
        "type": "Point",
        "coordinates": [
          126.7711918,
          34.6446579
        ]
      },
      "properties": {
        "station_id": "039a0507-0276-518a-a468-046ca25bc20c",
        "ground_truth_value": 20.729166666666664,
        "pollutant": "PM10",
        "period_key": "2024-09",
        "predicted_value": null
      }
    },
    {
      "type": "Feature",
      "geometry": {
        "type": "Point",
        "coordinates": [
          -73.115657,
          -36.780632
        ]
      },
      "properties": {
        "station_id": "03a80d7d-cb81-5bc9-8bee-7e848c050607",
        "ground_truth_value": 47.60416666666667,
        "pollutant": "PM10",
        "period_key": "2024-09",
        "predicted_value": null
      }
    },
    {
      "type": "Feature",
      "geometry": {
        "type": "Point",
        "coordinates": [
          -77.48925,
          39.02473
        ]
      },
      "properties": {
        "station_id": "03ac0621-e774-58a3-9c5b-11ea3ff19aeb",
        "ground_truth_value": 12.5,
        "pollutant": "PM10",
        "period_key": "2024-09",
        "predicted_value": null
      }
    },
    {
      "type": "Feature",
      "geometry": {
        "type": "Point",
        "coordinates": [
          128.987347,
          35.310414
        ]
      },
      "properties": {
        "station_id": "0463a7c8-903e-5bb7-9f81-8710f25ea05a",
        "ground_truth_value": 16.708333333333336,
        "pollutant": "PM10",
        "period_key": "2024-09",
        "predicted_value": null
      }
    },
    {
      "type": "Feature",
      "geometry": {
        "type": "Point",
        "coordinates": [
          15.31006,
          38.20556
        ]
      },
      "properties": {
        "station_id": "050ad779-48c4-5c8e-ba66-9e3a46dcaa08",
        "ground_truth_value": 19.1,
        "pollutant": "PM10",
        "period_key": "2024-09",
        "predicted_value": null
      }
    },
    {
      "type": "Feature",
      "geometry": {
        "type": "Point",
        "coordinates": [
          128.9867779,
          37.1626445
        ]
      },
      "properties": {
        "station_id": "0514ed39-812d-5751-b1aa-f63555e16ed7",
        "ground_truth_value": 13.0625,
        "pollutant": "PM10",
        "period_key": "2024-09",
        "predicted_value": null
      }
    },
    {
      "type": "Feature",
      "geometry": {
        "type": "Point",
        "coordinates": [
          126.73108,
          37.906227
        ]
      },
      "properties": {
        "station_id": "051c89b7-3a72-526f-8393-d8c912a46488",
        "ground_truth_value": 12.041666666666668,
        "pollutant": "PM10",
        "period_key": "2024-09",
        "predicted_value": null
      }
    },
    {
      "type": "Feature",
      "geometry": {
        "type": "Point",
        "coordinates": [
          -43.5567,
          -22.8862
        ]
      },
      "properties": {
        "station_id": "051e2d2f-4415-52ee-a4e4-def6484e95bc",
        "ground_truth_value": 56.97208333333333,
        "pollutant": "PM10",
        "period_key": "2024-09",
        "predicted_value": null
      }
    },
    {
      "type": "Feature",
      "geometry": {
        "type": "Point",
        "coordinates": [
          126.9065322,
          34.67436229999999
        ]
      },
      "properties": {
        "station_id": "0621ef76-5eb7-56c3-a7f1-5979631d3a56",
        "ground_truth_value": 21.708333333333332,
        "pollutant": "PM10",
        "period_key": "2024-09",
        "predicted_value": null
      }
    },
    {
      "type": "Feature",
      "geometry": {
        "type": "Point",
        "coordinates": [
          8.21208,
          53.14284
        ]
      },
      "properties": {
        "station_id": "063c58ad-a392-5780-a8fb-522b0f96b5bb",
        "ground_truth_value": 16.0105005,
        "pollutant": "PM10",
        "period_key": "2024-09",
        "predicted_value": null
      }
    },
    {
      "type": "Feature",
      "geometry": {
        "type": "Point",
        "coordinates": [
          128.550652,
          35.923033
        ]
      },
      "properties": {
        "station_id": "06b8aa35-6c6a-5bce-93a4-f6d449e6e846",
        "ground_truth_value": 12.708333333333334,
        "pollutant": "PM10",
        "period_key": "2024-09",
        "predicted_value": null
      }
    },
    {
      "type": "Feature",
      "geometry": {
        "type": "Point",
        "coordinates": [
          -121.442495,
          37.682635
        ]
      },
      "properties": {
        "station_id": "070b0ed4-4d32-5dcc-b862-f7ef9fa8141f",
        "ground_truth_value": 30.5,
        "pollutant": "PM10",
        "period_key": "2024-09",
        "predicted_value": null
      }
    },
    {
      "type": "Feature",
      "geometry": {
        "type": "Point",
        "coordinates": [
          127.214608,
          37.539109
        ]
      },
      "properties": {
        "station_id": "0726350f-fcca-506e-9fa0-80dd178c7182",
        "ground_truth_value": 18.041666666666668,
        "pollutant": "PM10",
        "period_key": "2024-09",
        "predicted_value": null
      }
    },
    {
      "type": "Feature",
      "geometry": {
        "type": "Point",
        "coordinates": [
          17.99601,
          49.34445
        ]
      },
      "properties": {
        "station_id": "07505fd8-ff8f-5a64-9b0b-147ba7122b36",
        "ground_truth_value": 17.45,
        "pollutant": "PM10",
        "period_key": "2024-09",
        "predicted_value": null
      }
    },
    {
      "type": "Feature",
      "geometry": {
        "type": "Point",
        "coordinates": [
          127.18602299999999,
          37.567014
        ]
      },
      "properties": {
        "station_id": "07eba16d-1eb6-5c33-a7b3-8e11fbb2cd04",
        "ground_truth_value": 18.104166666666664,
        "pollutant": "PM10",
        "period_key": "2024-09",
        "predicted_value": null
      }
    },
    {
      "type": "Feature",
      "geometry": {
        "type": "Point",
        "coordinates": [
          -105.267212,
          40.012969
        ]
      },
      "properties": {
        "station_id": "085f5c8a-a4aa-5c38-9267-aa3c0529b04f",
        "ground_truth_value": 21.0,
        "pollutant": "PM10",
        "period_key": "2024-09",
        "predicted_value": null
      }
    },
    {
      "type": "Feature",
      "geometry": {
        "type": "Point",
        "coordinates": [
          21.93409,
          49.98179
        ]
      },
      "properties": {
        "station_id": "08b6c257-2307-5baa-b320-4800589b99cc",
        "ground_truth_value": 24.5,
        "pollutant": "PM10",
        "period_key": "2024-09",
        "predicted_value": null
      }
    },
    {
      "type": "Feature",
      "geometry": {
        "type": "Point",
        "coordinates": [
          -72.679923,
          41.771444
        ]
      },
      "properties": {
        "station_id": "08f17cae-4ecf-5a7f-a830-411fc76f3ec2",
        "ground_truth_value": 12.0,
        "pollutant": "PM10",
        "period_key": "2024-09",
        "predicted_value": null
      }
    },
    {
      "type": "Feature",
      "geometry": {
        "type": "Point",
        "coordinates": [
          26.01521,
          44.98375
        ]
      },
      "properties": {
        "station_id": "08f67e07-b648-52f8-897a-c0da3af8d3a0",
        "ground_truth_value": 25.98,
        "pollutant": "PM10",
        "period_key": "2024-09",
        "predicted_value": null
      }
    },
    {
      "type": "Feature",
      "geometry": {
        "type": "Point",
        "coordinates": [
          -120.656912,
          35.614668
        ]
      },
      "properties": {
        "station_id": "091d903d-fc57-5bb8-b11f-230224a07ade",
        "ground_truth_value": 19.0,
        "pollutant": "PM10",
        "period_key": "2024-09",
        "predicted_value": null
      }
    },
    {
      "type": "Feature",
      "geometry": {
        "type": "Point",
        "coordinates": [
          11.8718,
          47.42855
        ]
      },
      "properties": {
        "station_id": "09506dfd-e8c9-56a8-9924-5c941dcad65e",
        "ground_truth_value": 10.040500000000002,
        "pollutant": "PM10",
        "period_key": "2024-09",
        "predicted_value": null
      }
    },
    {
      "type": "Feature",
      "geometry": {
        "type": "Point",
        "coordinates": [
          17.97586,
          54.12069
        ]
      },
      "properties": {
        "station_id": "097be2fd-f614-5220-93bc-5407c0e6c5fc",
        "ground_truth_value": 23.4,
        "pollutant": "PM10",
        "period_key": "2024-09",
        "predicted_value": null
      }
    },
    {
      "type": "Feature",
      "geometry": {
        "type": "Point",
        "coordinates": [
          6.70016,
          51.36872
        ]
      },
      "properties": {
        "station_id": "09b52b81-d567-5dc6-9a41-0cead014ba73",
        "ground_truth_value": 12.5,
        "pollutant": "PM10",
        "period_key": "2024-09",
        "predicted_value": null
      }
    },
    {
      "type": "Feature",
      "geometry": {
        "type": "Point",
        "coordinates": [
          -73.14909696579,
          -37.009021343988
        ]
      },
      "properties": {
        "station_id": "09bfee66-555b-5ec1-b98f-50ad98fef7b4",
        "ground_truth_value": 40.25,
        "pollutant": "PM10",
        "period_key": "2024-09",
        "predicted_value": null
      }
    },
    {
      "type": "Feature",
      "geometry": {
        "type": "Point",
        "coordinates": [
          -69.786717,
          44.312319
        ]
      },
      "properties": {
        "station_id": "09d95d81-42d6-5861-bee1-ade7f235ee7d",
        "ground_truth_value": 10.0,
        "pollutant": "PM10",
        "period_key": "2024-09",
        "predicted_value": null
      }
    },
    {
      "type": "Feature",
      "geometry": {
        "type": "Point",
        "coordinates": [
          -109.71115,
          41.593611
        ]
      },
      "properties": {
        "station_id": "09e3b2be-a143-58b4-94db-1d56a5aa1315",
        "ground_truth_value": 20.0,
        "pollutant": "PM10",
        "period_key": "2024-09",
        "predicted_value": null
      }
    },
    {
      "type": "Feature",
      "geometry": {
        "type": "Point",
        "coordinates": [
          127.693427,
          34.937342
        ]
      },
      "properties": {
        "station_id": "0a1dfecd-959e-5187-93af-d10b7c09129e",
        "ground_truth_value": 15.5,
        "pollutant": "PM10",
        "period_key": "2024-09",
        "predicted_value": null
      }
    },
    {
      "type": "Feature",
      "geometry": {
        "type": "Point",
        "coordinates": [
          126.66859999999998,
          37.4725
        ]
      },
      "properties": {
        "station_id": "0a36c4b9-f660-553d-a96b-f8015df3cc46",
        "ground_truth_value": 840.3541666666667,
        "pollutant": "PM10",
        "period_key": "2024-09",
        "predicted_value": null
      }
    },
    {
      "type": "Feature",
      "geometry": {
        "type": "Point",
        "coordinates": [
          15.07848,
          50.62455
        ]
      },
      "properties": {
        "station_id": "0a731585-9b0b-5389-a76d-923b2718bc2b",
        "ground_truth_value": 14.2,
        "pollutant": "PM10",
        "period_key": "2024-09",
        "predicted_value": null
      }
    },
    {
      "type": "Feature",
      "geometry": {
        "type": "Point",
        "coordinates": [
          -118.178601,
          34.725389
        ]
      },
      "properties": {
        "station_id": "0a8754b1-06c3-5319-9241-c28da1b571b0",
        "ground_truth_value": 32.0,
        "pollutant": "PM10",
        "period_key": "2024-09",
        "predicted_value": null
      }
    },
    {
      "type": "Feature",
      "geometry": {
        "type": "Point",
        "coordinates": [
          2.18684,
          41.37494
        ]
      },
      "properties": {
        "station_id": "0a8bca6c-4c14-5b37-9896-1959b1a1f517",
        "ground_truth_value": 17.0,
        "pollutant": "PM10",
        "period_key": "2024-09",
        "predicted_value": null
      }
    },
    {
      "type": "Feature",
      "geometry": {
        "type": "Point",
        "coordinates": [
          20.01827,
          50.09851
        ]
      },
      "properties": {
        "station_id": "0a9f7a21-1941-5fc8-9360-729b154a8139",
        "ground_truth_value": 30.8,
        "pollutant": "PM10",
        "period_key": "2024-09",
        "predicted_value": null
      }
    },
    {
      "type": "Feature",
      "geometry": {
        "type": "Point",
        "coordinates": [
          -103.48386,
          43.55764
        ]
      },
      "properties": {
        "station_id": "0aa3181a-17ea-56b2-8199-3dc10476ece9",
        "ground_truth_value": 17.0,
        "pollutant": "PM10",
        "period_key": "2024-09",
        "predicted_value": null
      }
    },
    {
      "type": "Feature",
      "geometry": {
        "type": "Point",
        "coordinates": [
          25.46655,
          44.91519
        ]
      },
      "properties": {
        "station_id": "0ae9c63f-d63d-56a9-a32a-95fd1ac270e6",
        "ground_truth_value": 23.784,
        "pollutant": "PM10",
        "period_key": "2024-09",
        "predicted_value": null
      }
    },
    {
      "type": "Feature",
      "geometry": {
        "type": "Point",
        "coordinates": [
          -94.669697,
          35.750735
        ]
      },
      "properties": {
        "station_id": "0af42a11-2f35-57ee-8dc0-aab04b219a8a",
        "ground_truth_value": 17.0,
        "pollutant": "PM10",
        "period_key": "2024-09",
        "predicted_value": null
      }
    },
    {
      "type": "Feature",
      "geometry": {
        "type": "Point",
        "coordinates": [
          -118.22688,
          34.06659
        ]
      },
      "properties": {
        "station_id": "0b29aa40-095d-57fb-be1b-8583c0eb2d3c",
        "ground_truth_value": 25.0,
        "pollutant": "PM10",
        "period_key": "2024-09",
        "predicted_value": null
      }
    },
    {
      "type": "Feature",
      "geometry": {
        "type": "Point",
        "coordinates": [
          126.709878,
          37.354651
        ]
      },
      "properties": {
        "station_id": "0b690a11-4068-5a01-a2ea-a951a57df763",
        "ground_truth_value": 18.854166666666668,
        "pollutant": "PM10",
        "period_key": "2024-09",
        "predicted_value": null
      }
    },
    {
      "type": "Feature",
      "geometry": {
        "type": "Point",
        "coordinates": [
          15.16216,
          50.72736
        ]
      },
      "properties": {
        "station_id": "0bca9131-58ae-552a-9dba-fb3238a3ab4b",
        "ground_truth_value": 14.8,
        "pollutant": "PM10",
        "period_key": "2024-09",
        "predicted_value": null
      }
    },
    {
      "type": "Feature",
      "geometry": {
        "type": "Point",
        "coordinates": [
          12.46957,
          41.86399
        ]
      },
      "properties": {
        "station_id": "0bcb22fb-fbff-5e74-886e-352dc599db59",
        "ground_truth_value": 22.75,
        "pollutant": "PM10",
        "period_key": "2024-09",
        "predicted_value": null
      }
    },
    {
      "type": "Feature",
      "geometry": {
        "type": "Point",
        "coordinates": [
          129.078112,
          35.184734
        ]
      },
      "properties": {
        "station_id": "0be6e161-7685-5a21-8f5b-fe552ddccb25",
        "ground_truth_value": 14.0,
        "pollutant": "PM10",
        "period_key": "2024-09",
        "predicted_value": null
      }
    },
    {
      "type": "Feature",
      "geometry": {
        "type": "Point",
        "coordinates": [
          -115.078742,
          36.141875
        ]
      },
      "properties": {
        "station_id": "0c22b41d-227d-5bea-84a2-37bdfcfaffb1",
        "ground_truth_value": 35.5,
        "pollutant": "PM10",
        "period_key": "2024-09",
        "predicted_value": null
      }
    },
    {
      "type": "Feature",
      "geometry": {
        "type": "Point",
        "coordinates": [
          126.589768,
          36.353251
        ]
      },
      "properties": {
        "station_id": "0c5b8197-07a9-5803-8bf2-2acae4d7e567",
        "ground_truth_value": 16.291666666666664,
        "pollutant": "PM10",
        "period_key": "2024-09",
        "predicted_value": null
      }
    },
    {
      "type": "Feature",
      "geometry": {
        "type": "Point",
        "coordinates": [
          8.4157,
          45.8988
        ]
      },
      "properties": {
        "station_id": "0c8bfabd-20f4-5fa3-87ea-a3e45977968c",
        "ground_truth_value": 11.0,
        "pollutant": "PM10",
        "period_key": "2024-09",
        "predicted_value": null
      }
    },
    {
      "type": "Feature",
      "geometry": {
        "type": "Point",
        "coordinates": [
          126.785915,
          36.79049800000001
        ]
      },
      "properties": {
        "station_id": "0c96ba22-ed82-5f73-84ab-93b1fca3df70",
        "ground_truth_value": 17.104166666666668,
        "pollutant": "PM10",
        "period_key": "2024-09",
        "predicted_value": null
      }
    },
    {
      "type": "Feature",
      "geometry": {
        "type": "Point",
        "coordinates": [
          126.67472199999999,
          37.502778
        ]
      },
      "properties": {
        "station_id": "0d487b0a-db97-507d-97cd-b8b283acfcc8",
        "ground_truth_value": 431.72916666666663,
        "pollutant": "PM10",
        "period_key": "2024-09",
        "predicted_value": null
      }
    },
    {
      "type": "Feature",
      "geometry": {
        "type": "Point",
        "coordinates": [
          -109.97029,
          33.85815
        ]
      },
      "properties": {
        "station_id": "0d5ff40e-e50e-5fbf-bb61-d121bfa7b711",
        "ground_truth_value": 13.0,
        "pollutant": "PM10",
        "period_key": "2024-09",
        "predicted_value": null
      }
    },
    {
      "type": "Feature",
      "geometry": {
        "type": "Point",
        "coordinates": [
          19.89901,
          44.27305
        ]
      },
      "properties": {
        "station_id": "0dd3946d-cd48-5b3d-a89d-d4a667a05190",
        "ground_truth_value": 41.1,
        "pollutant": "PM10",
        "period_key": "2024-09",
        "predicted_value": null
      }
    },
    {
      "type": "Feature",
      "geometry": {
        "type": "Point",
        "coordinates": [
          126.48992299999999,
          33.2508702
        ]
      },
      "properties": {
        "station_id": "0de78bec-a663-5e11-84e3-b8c266e4df36",
        "ground_truth_value": 17.916666666666668,
        "pollutant": "PM10",
        "period_key": "2024-09",
        "predicted_value": null
      }
    },
    {
      "type": "Feature",
      "geometry": {
        "type": "Point",
        "coordinates": [
          120.25182500000001,
          23.753506
        ]
      },
      "properties": {
        "station_id": "0e7a0e90-e2b3-53a5-848a-0568a416b507",
        "ground_truth_value": 23.173913043478258,
        "pollutant": "PM10",
        "period_key": "2024-09",
        "predicted_value": null
      }
    },
    {
      "type": "Feature",
      "geometry": {
        "type": "Point",
        "coordinates": [
          -110.6092,
          41.6914
        ]
      },
      "properties": {
        "station_id": "0e938059-8d3c-5e8a-a837-529d2cb27f43",
        "ground_truth_value": 16.5,
        "pollutant": "PM10",
        "period_key": "2024-09",
        "predicted_value": null
      }
    },
    {
      "type": "Feature",
      "geometry": {
        "type": "Point",
        "coordinates": [
          147.148,
          -41.465
        ]
      },
      "properties": {
        "station_id": "0eef701c-ab7a-56cc-8d6c-298524ca3387",
        "ground_truth_value": 5.302083333333333,
        "pollutant": "PM10",
        "period_key": "2024-09",
        "predicted_value": null
      }
    },
    {
      "type": "Feature",
      "geometry": {
        "type": "Point",
        "coordinates": [
          128.248144,
          38.389557
        ]
      },
      "properties": {
        "station_id": "0f23ca95-0585-5427-9cf8-f6b030c4cd42",
        "ground_truth_value": 20.5625,
        "pollutant": "PM10",
        "period_key": "2024-09",
        "predicted_value": null
      }
    },
    {
      "type": "Feature",
      "geometry": {
        "type": "Point",
        "coordinates": [
          128.560665,
          35.183108
        ]
      },
      "properties": {
        "station_id": "0f29183e-8b63-5348-b5ed-9c90aa3d6ab2",
        "ground_truth_value": 15.8125,
        "pollutant": "PM10",
        "period_key": "2024-09",
        "predicted_value": null
      }
    },
    {
      "type": "Feature",
      "geometry": {
        "type": "Point",
        "coordinates": [
          13.09428,
          52.38895
        ]
      },
      "properties": {
        "station_id": "0f30caf6-e08d-5f28-a694-78638dbbe58b",
        "ground_truth_value": 14.850000000000001,
        "pollutant": "PM10",
        "period_key": "2024-09",
        "predicted_value": null
      }
    },
    {
      "type": "Feature",
      "geometry": {
        "type": "Point",
        "coordinates": [
          6.8359,
          45.0348
        ]
      },
      "properties": {
        "station_id": "0f5f4e94-c514-5aad-82e0-eea8970f5852",
        "ground_truth_value": 10.5,
        "pollutant": "PM10",
        "period_key": "2024-09",
        "predicted_value": null
      }
    },
    {
      "type": "Feature",
      "geometry": {
        "type": "Point",
        "coordinates": [
          11.39206,
          47.22558
        ]
      },
      "properties": {
        "station_id": "0faeff7c-a43c-51ea-8609-610b6736d8da",
        "ground_truth_value": 11.570499,
        "pollutant": "PM10",
        "period_key": "2024-09",
        "predicted_value": null
      }
    },
    {
      "type": "Feature",
      "geometry": {
        "type": "Point",
        "coordinates": [
          -89.4358,
          43.0733
        ]
      },
      "properties": {
        "station_id": "0fc6b022-8376-5a41-b215-a9f766aa637d",
        "ground_truth_value": 14.0,
        "pollutant": "PM10",
        "period_key": "2024-09",
        "predicted_value": null
      }
    },
    {
      "type": "Feature",
      "geometry": {
        "type": "Point",
        "coordinates": [
          -111.561111,
          33.219111
        ]
      },
      "properties": {
        "station_id": "10327bee-d658-57b2-9904-c705b5d5efaf",
        "ground_truth_value": 32.0,
        "pollutant": "PM10",
        "period_key": "2024-09",
        "predicted_value": null
      }
    },
    {
      "type": "Feature",
      "geometry": {
        "type": "Point",
        "coordinates": [
          -117.02471,
          34.89405
        ]
      },
      "properties": {
        "station_id": "10628902-b839-5694-b363-ad8a9a7b83f8",
        "ground_truth_value": 39.0,
        "pollutant": "PM10",
        "period_key": "2024-09",
        "predicted_value": null
      }
    },
    {
      "type": "Feature",
      "geometry": {
        "type": "Point",
        "coordinates": [
          -104.778334,
          41.182227
        ]
      },
      "properties": {
        "station_id": "10871ab3-acce-5ecf-b0da-fdd7d4557d0d",
        "ground_truth_value": 18.0,
        "pollutant": "PM10",
        "period_key": "2024-09",
        "predicted_value": null
      }
    },
    {
      "type": "Feature",
      "geometry": {
        "type": "Point",
        "coordinates": [
          -94.838889,
          36.922222
        ]
      },
      "properties": {
        "station_id": "10ac715f-00f0-579c-866b-73dfc2d29cee",
        "ground_truth_value": 29.0,
        "pollutant": "PM10",
        "period_key": "2024-09",
        "predicted_value": null
      }
    },
    {
      "type": "Feature",
      "geometry": {
        "type": "Point",
        "coordinates": [
          129.360814,
          36.05249
        ]
      },
      "properties": {
        "station_id": "10c80d08-ad7a-5d18-ae86-d962bf58b1c4",
        "ground_truth_value": 16.604166666666664,
        "pollutant": "PM10",
        "period_key": "2024-09",
        "predicted_value": null
      }
    },
    {
      "type": "Feature",
      "geometry": {
        "type": "Point",
        "coordinates": [
          126.645799,
          36.889976999999995
        ]
      },
      "properties": {
        "station_id": "112ab11a-ec8e-5449-b843-034eb28e318b",
        "ground_truth_value": 20.875,
        "pollutant": "PM10",
        "period_key": "2024-09",
        "predicted_value": null
      }
    },
    {
      "type": "Feature",
      "geometry": {
        "type": "Point",
        "coordinates": [
          -94.531518,
          39.132016
        ]
      },
      "properties": {
        "station_id": "1130fcbd-a7c2-5682-aed4-9b0a72002042",
        "ground_truth_value": 33.0,
        "pollutant": "PM10",
        "period_key": "2024-09",
        "predicted_value": null
      }
    },
    {
      "type": "Feature",
      "geometry": {
        "type": "Point",
        "coordinates": [
          126.99678300000001,
          37.570632999999994
        ]
      },
      "properties": {
        "station_id": "11607ca4-3492-5e7a-87a1-25cdcb8d04b1",
        "ground_truth_value": 15.895833333333332,
        "pollutant": "PM10",
        "period_key": "2024-09",
        "predicted_value": null
      }
    },
    {
      "type": "Feature",
      "geometry": {
        "type": "Point",
        "coordinates": [
          -81.656792,
          41.471782
        ]
      },
      "properties": {
        "station_id": "119f00bd-ad1f-5fea-9a29-2a8226bf6af7",
        "ground_truth_value": 18.5,
        "pollutant": "PM10",
        "period_key": "2024-09",
        "predicted_value": null
      }
    },
    {
      "type": "Feature",
      "geometry": {
        "type": "Point",
        "coordinates": [
          -98.29085,
          26.226343
        ]
      },
      "properties": {
        "station_id": "11dce9be-34f7-540b-96a5-df020ee0501d",
        "ground_truth_value": 17.0,
        "pollutant": "PM10",
        "period_key": "2024-09",
        "predicted_value": null
      }
    },
    {
      "type": "Feature",
      "geometry": {
        "type": "Point",
        "coordinates": [
          9.69444,
          40.575
        ]
      },
      "properties": {
        "station_id": "11f22306-155a-5bf5-bf43-d062798fc182",
        "ground_truth_value": 16.3207,
        "pollutant": "PM10",
        "period_key": "2024-09",
        "predicted_value": null
      }
    },
    {
      "type": "Feature",
      "geometry": {
        "type": "Point",
        "coordinates": [
          -120.50103,
          35.03146
        ]
      },
      "properties": {
        "station_id": "124d81b8-bc7a-555d-a005-80f732a0bff7",
        "ground_truth_value": 15.0,
        "pollutant": "PM10",
        "period_key": "2024-09",
        "predicted_value": null
      }
    },
    {
      "type": "Feature",
      "geometry": {
        "type": "Point",
        "coordinates": [
          120.33773599999999,
          22.565833
        ]
      },
      "properties": {
        "station_id": "125528cc-9f99-5569-887a-24adeba6e034",
        "ground_truth_value": 19.604166666666664,
        "pollutant": "PM10",
        "period_key": "2024-09",
        "predicted_value": null
      }
    },
    {
      "type": "Feature",
      "geometry": {
        "type": "Point",
        "coordinates": [
          -82.414585,
          34.843895
        ]
      },
      "properties": {
        "station_id": "12b7bf6a-b6be-5095-8bfb-14d9f267b611",
        "ground_truth_value": 13.0,
        "pollutant": "PM10",
        "period_key": "2024-09",
        "predicted_value": null
      }
    },
    {
      "type": "Feature",
      "geometry": {
        "type": "Point",
        "coordinates": [
          19.13143,
          51.58921
        ]
      },
      "properties": {
        "station_id": "12d5bbfd-2983-59f6-8523-f627d7875468",
        "ground_truth_value": 28.45,
        "pollutant": "PM10",
        "period_key": "2024-09",
        "predicted_value": null
      }
    },
    {
      "type": "Feature",
      "geometry": {
        "type": "Point",
        "coordinates": [
          127.4602048,
          36.3018429
        ]
      },
      "properties": {
        "station_id": "132ee7ce-5fc3-595c-8273-082d90652c4c",
        "ground_truth_value": 8.979166666666666,
        "pollutant": "PM10",
        "period_key": "2024-09",
        "predicted_value": null
      }
    },
    {
      "type": "Feature",
      "geometry": {
        "type": "Point",
        "coordinates": [
          -112.04659,
          33.45797
        ]
      },
      "properties": {
        "station_id": "1401bdeb-6a2a-5aa3-8128-f2c29351ac85",
        "ground_truth_value": 36.0,
        "pollutant": "PM10",
        "period_key": "2024-09",
        "predicted_value": null
      }
    },
    {
      "type": "Feature",
      "geometry": {
        "type": "Point",
        "coordinates": [
          -115.238282,
          36.270592
        ]
      },
      "properties": {
        "station_id": "14345228-dfb0-5e8f-b626-f105b2daf82a",
        "ground_truth_value": 30.5,
        "pollutant": "PM10",
        "period_key": "2024-09",
        "predicted_value": null
      }
    },
    {
      "type": "Feature",
      "geometry": {
        "type": "Point",
        "coordinates": [
          -115.11393,
          36.163962
        ]
      },
      "properties": {
        "station_id": "144319c3-644a-5862-b593-1134fed1ce9b",
        "ground_truth_value": 36.0,
        "pollutant": "PM10",
        "period_key": "2024-09",
        "predicted_value": null
      }
    },
    {
      "type": "Feature",
      "geometry": {
        "type": "Point",
        "coordinates": [
          18.98746,
          52.65677
        ]
      },
      "properties": {
        "station_id": "145550ab-a0bc-5faf-b37a-9cd0dbbe88c7",
        "ground_truth_value": 20.15,
        "pollutant": "PM10",
        "period_key": "2024-09",
        "predicted_value": null
      }
    },
    {
      "type": "Feature",
      "geometry": {
        "type": "Point",
        "coordinates": [
          127.50902999999998,
          34.88597099999999
        ]
      },
      "properties": {
        "station_id": "1455e076-1b22-50b2-84cf-1ff2ebdc388f",
        "ground_truth_value": 17.895833333333332,
        "pollutant": "PM10",
        "period_key": "2024-09",
        "predicted_value": null
      }
    },
    {
      "type": "Feature",
      "geometry": {
        "type": "Point",
        "coordinates": [
          -102.4018,
          48.64193
        ]
      },
      "properties": {
        "station_id": "146e5d9b-134b-5a11-99cc-f652edde6e08",
        "ground_truth_value": 17.5,
        "pollutant": "PM10",
        "period_key": "2024-09",
        "predicted_value": null
      }
    },
    {
      "type": "Feature",
      "geometry": {
        "type": "Point",
        "coordinates": [
          121.4325,
          25.037972
        ]
      },
      "properties": {
        "station_id": "148ecc55-5aff-5b20-947a-b8c199d57ff5",
        "ground_truth_value": 17.493659420289855,
        "pollutant": "PM10",
        "period_key": "2024-09",
        "predicted_value": null
      }
    },
    {
      "type": "Feature",
      "geometry": {
        "type": "Point",
        "coordinates": [
          -72.958522830688,
          -36.601713211434
        ]
      },
      "properties": {
        "station_id": "14a79db6-1ede-5680-9f74-ba62f1f5df1d",
        "ground_truth_value": 33.0,
        "pollutant": "PM10",
        "period_key": "2024-09",
        "predicted_value": null
      }
    },
    {
      "type": "Feature",
      "geometry": {
        "type": "Point",
        "coordinates": [
          -112.07526,
          33.40314
        ]
      },
      "properties": {
        "station_id": "14dc7daf-9ab4-563e-880a-b58ecb5fee20",
        "ground_truth_value": 27.0,
        "pollutant": "PM10",
        "period_key": "2024-09",
        "predicted_value": null
      }
    },
    {
      "type": "Feature",
      "geometry": {
        "type": "Point",
        "coordinates": [
          -105.452188,
          44.402188
        ]
      },
      "properties": {
        "station_id": "1537f6ba-dffe-5819-b81d-18d520d8807c",
        "ground_truth_value": 32.5,
        "pollutant": "PM10",
        "period_key": "2024-09",
        "predicted_value": null
      }
    },
    {
      "type": "Feature",
      "geometry": {
        "type": "Point",
        "coordinates": [
          -118.01068,
          36.361932
        ]
      },
      "properties": {
        "station_id": "15638a87-3a33-5ba7-bab3-c030c434f1ba",
        "ground_truth_value": 16.5,
        "pollutant": "PM10",
        "period_key": "2024-09",
        "predicted_value": null
      }
    },
    {
      "type": "Feature",
      "geometry": {
        "type": "Point",
        "coordinates": [
          -110.99644,
          31.87952
        ]
      },
      "properties": {
        "station_id": "157d3f28-ce64-520f-8fdf-2619f6e51506",
        "ground_truth_value": 12.0,
        "pollutant": "PM10",
        "period_key": "2024-09",
        "predicted_value": null
      }
    },
    {
      "type": "Feature",
      "geometry": {
        "type": "Point",
        "coordinates": [
          25.55265,
          41.93021
        ]
      },
      "properties": {
        "station_id": "15e83fb3-651d-5007-8832-6851002845ac",
        "ground_truth_value": 26.9,
        "pollutant": "PM10",
        "period_key": "2024-09",
        "predicted_value": null
      }
    },
    {
      "type": "Feature",
      "geometry": {
        "type": "Point",
        "coordinates": [
          128.690278,
          34.863611
        ]
      },
      "properties": {
        "station_id": "15f9ee3d-1d10-5c2a-927a-cf04c155e96d",
        "ground_truth_value": 14.291666666666666,
        "pollutant": "PM10",
        "period_key": "2024-09",
        "predicted_value": null
      }
    },
    {
      "type": "Feature",
      "geometry": {
        "type": "Point",
        "coordinates": [
          24.69862,
          59.45694
        ]
      },
      "properties": {
        "station_id": "160b40d3-a692-54c7-a859-b9bf592f980c",
        "ground_truth_value": 10.65,
        "pollutant": "PM10",
        "period_key": "2024-09",
        "predicted_value": null
      }
    },
    {
      "type": "Feature",
      "geometry": {
        "type": "Point",
        "coordinates": [
          127.490685,
          36.107179
        ]
      },
      "properties": {
        "station_id": "165eda01-579d-56af-81ea-f1fdd400617c",
        "ground_truth_value": 18.5,
        "pollutant": "PM10",
        "period_key": "2024-09",
        "predicted_value": null
      }
    },
    {
      "type": "Feature",
      "geometry": {
        "type": "Point",
        "coordinates": [
          -109.713239,
          41.709662
        ]
      },
      "properties": {
        "station_id": "1664438a-2413-52b8-bf1f-5b125e92a518",
        "ground_truth_value": 10.0,
        "pollutant": "PM10",
        "period_key": "2024-09",
        "predicted_value": null
      }
    },
    {
      "type": "Feature",
      "geometry": {
        "type": "Point",
        "coordinates": [
          -119.77321,
          36.78538
        ]
      },
      "properties": {
        "station_id": "16b0c325-f0ec-5bb1-907c-7ce39eed9778",
        "ground_truth_value": 58.0,
        "pollutant": "PM10",
        "period_key": "2024-09",
        "predicted_value": null
      }
    },
    {
      "type": "Feature",
      "geometry": {
        "type": "Point",
        "coordinates": [
          21.66073,
          50.88713
        ]
      },
      "properties": {
        "station_id": "16b515dd-f3a0-5d48-814b-e8481b751705",
        "ground_truth_value": 27.2,
        "pollutant": "PM10",
        "period_key": "2024-09",
        "predicted_value": null
      }
    },
    {
      "type": "Feature",
      "geometry": {
        "type": "Point",
        "coordinates": [
          12.2234,
          41.77484
        ]
      },
      "properties": {
        "station_id": "16bb5b84-11ec-5b25-8c91-2d32dce4224f",
        "ground_truth_value": 23.625,
        "pollutant": "PM10",
        "period_key": "2024-09",
        "predicted_value": null
      }
    },
    {
      "type": "Feature",
      "geometry": {
        "type": "Point",
        "coordinates": [
          -112.05204,
          33.06115
        ]
      },
      "properties": {
        "station_id": "16f93fa5-7cb8-511c-9621-d14beaf95f96",
        "ground_truth_value": 42.0,
        "pollutant": "PM10",
        "period_key": "2024-09",
        "predicted_value": null
      }
    },
    {
      "type": "Feature",
      "geometry": {
        "type": "Point",
        "coordinates": [
          16.33933,
          48.18715
        ]
      },
      "properties": {
        "station_id": "172bb268-da5a-5d40-b425-469e37c915ce",
        "ground_truth_value": 11.9764995,
        "pollutant": "PM10",
        "period_key": "2024-09",
        "predicted_value": null
      }
    },
    {
      "type": "Feature",
      "geometry": {
        "type": "Point",
        "coordinates": [
          129.115711,
          35.127969
        ]
      },
      "properties": {
        "station_id": "175f9267-1785-5724-b79b-bc36fa8e40a7",
        "ground_truth_value": 11.729166666666666,
        "pollutant": "PM10",
        "period_key": "2024-09",
        "predicted_value": null
      }
    },
    {
      "type": "Feature",
      "geometry": {
        "type": "Point",
        "coordinates": [
          17.98674,
          51.28299
        ]
      },
      "properties": {
        "station_id": "176e6d38-37a1-54e3-9876-0d5b8aac61d9",
        "ground_truth_value": 27.299999999999997,
        "pollutant": "PM10",
        "period_key": "2024-09",
        "predicted_value": null
      }
    },
    {
      "type": "Feature",
      "geometry": {
        "type": "Point",
        "coordinates": [
          -115.56306,
          32.79222
        ]
      },
      "properties": {
        "station_id": "177a3759-58f0-5859-96af-e52207612f43",
        "ground_truth_value": 43.0,
        "pollutant": "PM10",
        "period_key": "2024-09",
        "predicted_value": null
      }
    },
    {
      "type": "Feature",
      "geometry": {
        "type": "Point",
        "coordinates": [
          -73.152648210526,
          -36.984579193699
        ]
      },
      "properties": {
        "station_id": "177ee32d-70a4-520a-876e-0ebfe304e288",
        "ground_truth_value": 39.72916666666667,
        "pollutant": "PM10",
        "period_key": "2024-09",
        "predicted_value": null
      }
    },
    {
      "type": "Feature",
      "geometry": {
        "type": "Point",
        "coordinates": [
          12.70778,
          42.95167
        ]
      },
      "properties": {
        "station_id": "178300f4-548e-5af8-ac2a-5d75458ebef3",
        "ground_truth_value": 12.0,
        "pollutant": "PM10",
        "period_key": "2024-09",
        "predicted_value": null
      }
    },
    {
      "type": "Feature",
      "geometry": {
        "type": "Point",
        "coordinates": [
          16.09782,
          51.65702
        ]
      },
      "properties": {
        "station_id": "179ac11e-632f-5186-a5f4-2ef58de47386",
        "ground_truth_value": 25.75,
        "pollutant": "PM10",
        "period_key": "2024-09",
        "predicted_value": null
      }
    },
    {
      "type": "Feature",
      "geometry": {
        "type": "Point",
        "coordinates": [
          -72.089253650482,
          -36.594880886514
        ]
      },
      "properties": {
        "station_id": "17bff280-7cbe-5466-af72-be3bcfb796b1",
        "ground_truth_value": 26.0,
        "pollutant": "PM10",
        "period_key": "2024-09",
        "predicted_value": null
      }
    },
    {
      "type": "Feature",
      "geometry": {
        "type": "Point",
        "coordinates": [
          105.9159,
          21.1476
        ]
      },
      "properties": {
        "station_id": "17c266b6-04ae-57c6-9ff1-df79efc7072a",
        "ground_truth_value": 22.558333333333334,
        "pollutant": "PM10",
        "period_key": "2024-09",
        "predicted_value": null
      }
    },
    {
      "type": "Feature",
      "geometry": {
        "type": "Point",
        "coordinates": [
          126.58341,
          35.94904
        ]
      },
      "properties": {
        "station_id": "18496ee7-78d9-5b39-a790-361262ce0b82",
        "ground_truth_value": 24.291666666666668,
        "pollutant": "PM10",
        "period_key": "2024-09",
        "predicted_value": null
      }
    },
    {
      "type": "Feature",
      "geometry": {
        "type": "Point",
        "coordinates": [
          -120.034203,
          36.953256
        ]
      },
      "properties": {
        "station_id": "185c9b49-6f1d-5fec-a5ed-3d3f8339d72c",
        "ground_truth_value": 70.0,
        "pollutant": "PM10",
        "period_key": "2024-09",
        "predicted_value": null
      }
    },
    {
      "type": "Feature",
      "geometry": {
        "type": "Point",
        "coordinates": [
          148.041507211,
          -22.011196583
        ]
      },
      "properties": {
        "station_id": "1894c9bd-9598-5751-8a6a-4b117e256a48",
        "ground_truth_value": 40.225,
        "pollutant": "PM10",
        "period_key": "2024-09",
        "predicted_value": null
      }
    },
    {
      "type": "Feature",
      "geometry": {
        "type": "Point",
        "coordinates": [
          129.12322300000002,
          37.48981700000001
        ]
      },
      "properties": {
        "station_id": "18da8b00-22fb-56c1-b6f5-a78f0867f1de",
        "ground_truth_value": 34.708333333333336,
        "pollutant": "PM10",
        "period_key": "2024-09",
        "predicted_value": null
      }
    },
    {
      "type": "Feature",
      "geometry": {
        "type": "Point",
        "coordinates": [
          16.25411,
          50.80419
        ]
      },
      "properties": {
        "station_id": "192e59d6-110c-5387-a7ad-3bca43823fa8",
        "ground_truth_value": 22.2,
        "pollutant": "PM10",
        "period_key": "2024-09",
        "predicted_value": null
      }
    },
    {
      "type": "Feature",
      "geometry": {
        "type": "Point",
        "coordinates": [
          126.88977,
          35.688298
        ]
      },
      "properties": {
        "station_id": "19965d85-cbad-51cc-bb47-1ab7de50aefb",
        "ground_truth_value": 24.166666666666668,
        "pollutant": "PM10",
        "period_key": "2024-09",
        "predicted_value": null
      }
    },
    {
      "type": "Feature",
      "geometry": {
        "type": "Point",
        "coordinates": [
          129.086128,
          35.129493
        ]
      },
      "properties": {
        "station_id": "19c049bd-9775-59e5-aba4-01e45d9b3cd6",
        "ground_truth_value": 14.291666666666666,
        "pollutant": "PM10",
        "period_key": "2024-09",
        "predicted_value": null
      }
    },
    {
      "type": "Feature",
      "geometry": {
        "type": "Point",
        "coordinates": [
          16.1191,
          40.40444
        ]
      },
      "properties": {
        "station_id": "19c29c77-e32a-5c23-8213-52c0a138f081",
        "ground_truth_value": 22.299999999999997,
        "pollutant": "PM10",
        "period_key": "2024-09",
        "predicted_value": null
      }
    },
    {
      "type": "Feature",
      "geometry": {
        "type": "Point",
        "coordinates": [
          -88.21507,
          43.020075
        ]
      },
      "properties": {
        "station_id": "1a1cc1ce-05be-56ed-bc44-5c319bff6c49",
        "ground_truth_value": 18.0,
        "pollutant": "PM10",
        "period_key": "2024-09",
        "predicted_value": null
      }
    },
    {
      "type": "Feature",
      "geometry": {
        "type": "Point",
        "coordinates": [
          120.61691700000002,
          24.162196999999995
        ]
      },
      "properties": {
        "station_id": "1a30d68d-c07b-5a1a-a576-5e783bd781f7",
        "ground_truth_value": 28.602272727272727,
        "pollutant": "PM10",
        "period_key": "2024-09",
        "predicted_value": null
      }
    },
    {
      "type": "Feature",
      "geometry": {
        "type": "Point",
        "coordinates": [
          15.97407,
          45.80034
        ]
      },
      "properties": {
        "station_id": "1a5b7ee3-e7c5-5df9-8aa1-e48d4a7c6b7a",
        "ground_truth_value": 17.500500000000002,
        "pollutant": "PM10",
        "period_key": "2024-09",
        "predicted_value": null
      }
    },
    {
      "type": "Feature",
      "geometry": {
        "type": "Point",
        "coordinates": [
          -71.086126833637,
          -30.227767752117
        ]
      },
      "properties": {
        "station_id": "1ab529d1-8cf0-5a3b-ab95-ab776dfc4660",
        "ground_truth_value": 50.5,
        "pollutant": "PM10",
        "period_key": "2024-09",
        "predicted_value": null
      }
    },
    {
      "type": "Feature",
      "geometry": {
        "type": "Point",
        "coordinates": [
          127.657507,
          34.766301
        ]
      },
      "properties": {
        "station_id": "1abaacd8-b464-540b-a4f6-8f5a42c0e3bd",
        "ground_truth_value": 16.770833333333336,
        "pollutant": "PM10",
        "period_key": "2024-09",
        "predicted_value": null
      }
    },
    {
      "type": "Feature",
      "geometry": {
        "type": "Point",
        "coordinates": [
          129.0225679,
          35.1552633
        ]
      },
      "properties": {
        "station_id": "1b5121a1-db4f-5c7e-90d0-6e0648db5906",
        "ground_truth_value": 18.791666666666668,
        "pollutant": "PM10",
        "period_key": "2024-09",
        "predicted_value": null
      }
    },
    {
      "type": "Feature",
      "geometry": {
        "type": "Point",
        "coordinates": [
          16.9062,
          52.45919
        ]
      },
      "properties": {
        "station_id": "1ba8d5ee-2fbd-59f3-aa9c-3104d08a5878",
        "ground_truth_value": 19.0,
        "pollutant": "PM10",
        "period_key": "2024-09",
        "predicted_value": null
      }
    },
    {
      "type": "Feature",
      "geometry": {
        "type": "Point",
        "coordinates": [
          -116.921374,
          32.578165
        ]
      },
      "properties": {
        "station_id": "1bbe1af9-7d36-5b87-bea2-d0ef7f5a21b7",
        "ground_truth_value": 36.5,
        "pollutant": "PM10",
        "period_key": "2024-09",
        "predicted_value": null
      }
    },
    {
      "type": "Feature",
      "geometry": {
        "type": "Point",
        "coordinates": [
          -114.189272,
          48.363694
        ]
      },
      "properties": {
        "station_id": "1bd57c76-6fe2-5658-b509-f5153cd378e6",
        "ground_truth_value": 14.0,
        "pollutant": "PM10",
        "period_key": "2024-09",
        "predicted_value": null
      }
    },
    {
      "type": "Feature",
      "geometry": {
        "type": "Point",
        "coordinates": [
          0.91288,
          41.00951
        ]
      },
      "properties": {
        "station_id": "1bf00cd7-38cb-5fd2-8c2f-730059310ed6",
        "ground_truth_value": 9.5,
        "pollutant": "PM10",
        "period_key": "2024-09",
        "predicted_value": null
      }
    },
    {
      "type": "Feature",
      "geometry": {
        "type": "Point",
        "coordinates": [
          -117.41601,
          33.99958
        ]
      },
      "properties": {
        "station_id": "1bffe30b-bd68-511b-8217-7e28f515a213",
        "ground_truth_value": 45.0,
        "pollutant": "PM10",
        "period_key": "2024-09",
        "predicted_value": null
      }
    },
    {
      "type": "Feature",
      "geometry": {
        "type": "Point",
        "coordinates": [
          127.920092,
          35.6782
        ]
      },
      "properties": {
        "station_id": "1c9ec099-7dac-54ae-82c4-74f7c2f20baf",
        "ground_truth_value": 16.5,
        "pollutant": "PM10",
        "period_key": "2024-09",
        "predicted_value": null
      }
    },
    {
      "type": "Feature",
      "geometry": {
        "type": "Point",
        "coordinates": [
          8.30439,
          47.0458
        ]
      },
      "properties": {
        "station_id": "1cef125d-6844-58f6-9b4c-16f5309aada6",
        "ground_truth_value": 9.40445,
        "pollutant": "PM10",
        "period_key": "2024-09",
        "predicted_value": null
      }
    },
    {
      "type": "Feature",
      "geometry": {
        "type": "Point",
        "coordinates": [
          -120.480456,
          37.30832
        ]
      },
      "properties": {
        "station_id": "1d080cdf-041b-5c52-a296-76f81d66311d",
        "ground_truth_value": 52.0,
        "pollutant": "PM10",
        "period_key": "2024-09",
        "predicted_value": null
      }
    },
    {
      "type": "Feature",
      "geometry": {
        "type": "Point",
        "coordinates": [
          -123.018142,
          38.804267
        ]
      },
      "properties": {
        "station_id": "1d2deee9-603b-5723-a7fa-dd82120b4f01",
        "ground_truth_value": 8.0,
        "pollutant": "PM10",
        "period_key": "2024-09",
        "predicted_value": null
      }
    },
    {
      "type": "Feature",
      "geometry": {
        "type": "Point",
        "coordinates": [
          126.46333300000002,
          37.764444
        ]
      },
      "properties": {
        "station_id": "1d3a945a-4ce5-524e-9baa-d315fabfc685",
        "ground_truth_value": 15.229166666666668,
        "pollutant": "PM10",
        "period_key": "2024-09",
        "predicted_value": null
      }
    },
    {
      "type": "Feature",
      "geometry": {
        "type": "Point",
        "coordinates": [
          127.179801,
          38.290859000000005
        ]
      },
      "properties": {
        "station_id": "1d6e4ff7-2182-599b-a85e-3bc1448e1ca0",
        "ground_truth_value": 19.666666666666668,
        "pollutant": "PM10",
        "period_key": "2024-09",
        "predicted_value": null
      }
    },
    {
      "type": "Feature",
      "geometry": {
        "type": "Point",
        "coordinates": [
          -115.091437,
          36.214465
        ]
      },
      "properties": {
        "station_id": "1e32e16b-c80b-56d4-b38c-a19b0c7b361e",
        "ground_truth_value": 38.0,
        "pollutant": "PM10",
        "period_key": "2024-09",
        "predicted_value": null
      }
    },
    {
      "type": "Feature",
      "geometry": {
        "type": "Point",
        "coordinates": [
          128.97136709999998,
          35.20958000000001
        ]
      },
      "properties": {
        "station_id": "1e5a869b-77a0-5ce0-a9fb-18b70d8bcf95",
        "ground_truth_value": 14.833333333333334,
        "pollutant": "PM10",
        "period_key": "2024-09",
        "predicted_value": null
      }
    },
    {
      "type": "Feature",
      "geometry": {
        "type": "Point",
        "coordinates": [
          126.73289,
          37.37382300000001
        ]
      },
      "properties": {
        "station_id": "1e6d3417-5100-5c14-aae2-448eb6fa55b5",
        "ground_truth_value": 19.25,
        "pollutant": "PM10",
        "period_key": "2024-09",
        "predicted_value": null
      }
    },
    {
      "type": "Feature",
      "geometry": {
        "type": "Point",
        "coordinates": [
          -109.455315,
          47.048537
        ]
      },
      "properties": {
        "station_id": "1e707aa8-50e9-54aa-b341-962613f2582a",
        "ground_truth_value": 12.0,
        "pollutant": "PM10",
        "period_key": "2024-09",
        "predicted_value": null
      }
    },
    {
      "type": "Feature",
      "geometry": {
        "type": "Point",
        "coordinates": [
          -115.263038,
          36.16976
        ]
      },
      "properties": {
        "station_id": "1ec6f96d-0f57-57d2-995e-7d64bcde9044",
        "ground_truth_value": 26.0,
        "pollutant": "PM10",
        "period_key": "2024-09",
        "predicted_value": null
      }
    },
    {
      "type": "Feature",
      "geometry": {
        "type": "Point",
        "coordinates": [
          -78.574167,
          35.856111
        ]
      },
      "properties": {
        "station_id": "1ecc217b-8840-572c-85d8-90df680404b5",
        "ground_truth_value": 15.0,
        "pollutant": "PM10",
        "period_key": "2024-09",
        "predicted_value": null
      }
    },
    {
      "type": "Feature",
      "geometry": {
        "type": "Point",
        "coordinates": [
          126.358971,
          36.993587999999995
        ]
      },
      "properties": {
        "station_id": "1f4515ae-ea34-5654-bc42-ad60507c933c",
        "ground_truth_value": 17.083333333333332,
        "pollutant": "PM10",
        "period_key": "2024-09",
        "predicted_value": null
      }
    },
    {
      "type": "Feature",
      "geometry": {
        "type": "Point",
        "coordinates": [
          -94.746424,
          38.838575
        ]
      },
      "properties": {
        "station_id": "1f45b869-3d7e-5da8-9f9b-61648eb7f9c1",
        "ground_truth_value": 21.0,
        "pollutant": "PM10",
        "period_key": "2024-09",
        "predicted_value": null
      }
    },
    {
      "type": "Feature",
      "geometry": {
        "type": "Point",
        "coordinates": [
          128.459293,
          35.695336
        ]
      },
      "properties": {
        "station_id": "1f47ffac-dd79-5798-99ea-19b88460f526",
        "ground_truth_value": 16.875,
        "pollutant": "PM10",
        "period_key": "2024-09",
        "predicted_value": null
      }
    },
    {
      "type": "Feature",
      "geometry": {
        "type": "Point",
        "coordinates": [
          128.32436980500003,
          34.974543611
        ]
      },
      "properties": {
        "station_id": "201aa65d-dd42-5d5a-8cd2-849d0fc07594",
        "ground_truth_value": 17.5,
        "pollutant": "PM10",
        "period_key": "2024-09",
        "predicted_value": null
      }
    },
    {
      "type": "Feature",
      "geometry": {
        "type": "Point",
        "coordinates": [
          -118.171019,
          33.793713
        ]
      },
      "properties": {
        "station_id": "206bfe40-e681-5a38-ba86-c85743e18f63",
        "ground_truth_value": 23.0,
        "pollutant": "PM10",
        "period_key": "2024-09",
        "predicted_value": null
      }
    },
    {
      "type": "Feature",
      "geometry": {
        "type": "Point",
        "coordinates": [
          -82.822512,
          38.609338
        ]
      },
      "properties": {
        "station_id": "2075394f-ff4d-5b7d-82ee-66019d362936",
        "ground_truth_value": 7.0,
        "pollutant": "PM10",
        "period_key": "2024-09",
        "predicted_value": null
      }
    },
    {
      "type": "Feature",
      "geometry": {
        "type": "Point",
        "coordinates": [
          127.58111111109999,
          35.0113888889
        ]
      },
      "properties": {
        "station_id": "20a3b208-53bd-5be9-8faf-32634784bb79",
        "ground_truth_value": 17.208333333333336,
        "pollutant": "PM10",
        "period_key": "2024-09",
        "predicted_value": null
      }
    },
    {
      "type": "Feature",
      "geometry": {
        "type": "Point",
        "coordinates": [
          126.813441,
          37.685514000000005
        ]
      },
      "properties": {
        "station_id": "20e0ef1e-f905-5290-84cc-cb3364d939f5",
        "ground_truth_value": 22.458333333333336,
        "pollutant": "PM10",
        "period_key": "2024-09",
        "predicted_value": null
      }
    },
    {
      "type": "Feature",
      "geometry": {
        "type": "Point",
        "coordinates": [
          127.366717,
          36.304667
        ]
      },
      "properties": {
        "station_id": "2108b4ed-9310-50d1-b488-81f6d0474c33",
        "ground_truth_value": 12.645833333333332,
        "pollutant": "PM10",
        "period_key": "2024-09",
        "predicted_value": null
      }
    },
    {
      "type": "Feature",
      "geometry": {
        "type": "Point",
        "coordinates": [
          -95.711275,
          39.024265
        ]
      },
      "properties": {
        "station_id": "219c59f4-ad0b-5e8a-a300-d168fe137161",
        "ground_truth_value": 25.0,
        "pollutant": "PM10",
        "period_key": "2024-09",
        "predicted_value": null
      }
    },
    {
      "type": "Feature",
      "geometry": {
        "type": "Point",
        "coordinates": [
          -110.009732,
          40.294178
        ]
      },
      "properties": {
        "station_id": "21a6fd11-92f8-5d9c-974e-769c0b96b08a",
        "ground_truth_value": 18.0,
        "pollutant": "PM10",
        "period_key": "2024-09",
        "predicted_value": null
      }
    },
    {
      "type": "Feature",
      "geometry": {
        "type": "Point",
        "coordinates": [
          18.22776,
          54.60453
        ]
      },
      "properties": {
        "station_id": "21e40912-6ef7-5954-8075-8d5190670c1f",
        "ground_truth_value": 21.8,
        "pollutant": "PM10",
        "period_key": "2024-09",
        "predicted_value": null
      }
    },
    {
      "type": "Feature",
      "geometry": {
        "type": "Point",
        "coordinates": [
          126.74836,
          35.93937
        ]
      },
      "properties": {
        "station_id": "22adc907-46d2-5490-9c1f-e32d3a0a0d5c",
        "ground_truth_value": 19.416666666666664,
        "pollutant": "PM10",
        "period_key": "2024-09",
        "predicted_value": null
      }
    },
    {
      "type": "Feature",
      "geometry": {
        "type": "Point",
        "coordinates": [
          126.268778,
          33.409109
        ]
      },
      "properties": {
        "station_id": "22f564c4-4590-5baf-a385-f8d35b1b4a69",
        "ground_truth_value": 23.208333333333332,
        "pollutant": "PM10",
        "period_key": "2024-09",
        "predicted_value": null
      }
    },
    {
      "type": "Feature",
      "geometry": {
        "type": "Point",
        "coordinates": [
          126.69838300000002,
          36.076309
        ]
      },
      "properties": {
        "station_id": "2314bb73-fdeb-51fa-a1fe-5033487da2af",
        "ground_truth_value": 16.25,
        "pollutant": "PM10",
        "period_key": "2024-09",
        "predicted_value": null
      }
    },
    {
      "type": "Feature",
      "geometry": {
        "type": "Point",
        "coordinates": [
          120.409653,
          23.925175
        ]
      },
      "properties": {
        "station_id": "2324c3c9-5334-58d0-92f0-50d74253d267",
        "ground_truth_value": 32.104166666666664,
        "pollutant": "PM10",
        "period_key": "2024-09",
        "predicted_value": null
      }
    },
    {
      "type": "Feature",
      "geometry": {
        "type": "Point",
        "coordinates": [
          129.331878,
          35.544442
        ]
      },
      "properties": {
        "station_id": "233db5cd-9825-5406-af40-f3c67aa59c15",
        "ground_truth_value": 19.75,
        "pollutant": "PM10",
        "period_key": "2024-09",
        "predicted_value": null
      }
    },
    {
      "type": "Feature",
      "geometry": {
        "type": "Point",
        "coordinates": [
          -103.315765,
          44.155636
        ]
      },
      "properties": {
        "station_id": "233f25fc-b3a0-55a1-ad27-1b9342573c60",
        "ground_truth_value": 20.0,
        "pollutant": "PM10",
        "period_key": "2024-09",
        "predicted_value": null
      }
    },
    {
      "type": "Feature",
      "geometry": {
        "type": "Point",
        "coordinates": [
          129.40708599999996,
          36.537527000000004
        ]
      },
      "properties": {
        "station_id": "239f5f7a-0b78-50f0-adc5-825e15a0cd13",
        "ground_truth_value": 14.083333333333334,
        "pollutant": "PM10",
        "period_key": "2024-09",
        "predicted_value": null
      }
    },
    {
      "type": "Feature",
      "geometry": {
        "type": "Point",
        "coordinates": [
          126.455459,
          36.780177
        ]
      },
      "properties": {
        "station_id": "23a12bda-9771-59da-917f-1e12cd66166a",
        "ground_truth_value": 23.291666666666664,
        "pollutant": "PM10",
        "period_key": "2024-09",
        "predicted_value": null
      }
    },
    {
      "type": "Feature",
      "geometry": {
        "type": "Point",
        "coordinates": [
          21.79131,
          49.56518
        ]
      },
      "properties": {
        "station_id": "23ddcbb3-36aa-5915-8baf-48070a4d1adf",
        "ground_truth_value": 21.4,
        "pollutant": "PM10",
        "period_key": "2024-09",
        "predicted_value": null
      }
    },
    {
      "type": "Feature",
      "geometry": {
        "type": "Point",
        "coordinates": [
          -114.93342,
          50.007794
        ]
      },
      "properties": {
        "station_id": "23fe6d85-a6dc-53c5-b354-b8033f3c14d0",
        "ground_truth_value": 11.460227272727273,
        "pollutant": "PM10",
        "period_key": "2024-09",
        "predicted_value": null
      }
    },
    {
      "type": "Feature",
      "geometry": {
        "type": "Point",
        "coordinates": [
          -112.03705,
          32.884761
        ]
      },
      "properties": {
        "station_id": "2405234c-1ef4-5206-8f92-c7f983408311",
        "ground_truth_value": 120.0,
        "pollutant": "PM10",
        "period_key": "2024-09",
        "predicted_value": null
      }
    },
    {
      "type": "Feature",
      "geometry": {
        "type": "Point",
        "coordinates": [
          21.21168,
          48.47389
        ]
      },
      "properties": {
        "station_id": "242076b6-3b85-5bcd-b87e-14de3835d401",
        "ground_truth_value": 23.0,
        "pollutant": "PM10",
        "period_key": "2024-09",
        "predicted_value": null
      }
    },
    {
      "type": "Feature",
      "geometry": {
        "type": "Point",
        "coordinates": [
          126.56391899999998,
          37.494835
        ]
      },
      "properties": {
        "station_id": "24450266-f397-5d7e-b8c8-781730cd34d6",
        "ground_truth_value": 17.916666666666664,
        "pollutant": "PM10",
        "period_key": "2024-09",
        "predicted_value": null
      }
    },
    {
      "type": "Feature",
      "geometry": {
        "type": "Point",
        "coordinates": [
          -0.13889,
          41.05417
        ]
      },
      "properties": {
        "station_id": "24975908-d704-5064-a2c1-8f8fa705b5a4",
        "ground_truth_value": 22.0,
        "pollutant": "PM10",
        "period_key": "2024-09",
        "predicted_value": null
      }
    },
    {
      "type": "Feature",
      "geometry": {
        "type": "Point",
        "coordinates": [
          12.23917,
          44.13917
        ]
      },
      "properties": {
        "station_id": "24b55e23-41ec-5358-a536-920250cea525",
        "ground_truth_value": 14.0,
        "pollutant": "PM10",
        "period_key": "2024-09",
        "predicted_value": null
      }
    },
    {
      "type": "Feature",
      "geometry": {
        "type": "Point",
        "coordinates": [
          -106.50815,
          35.1852
        ]
      },
      "properties": {
        "station_id": "24fd8722-d2d7-5db7-b77f-766d4d9d50a5",
        "ground_truth_value": 15.0,
        "pollutant": "PM10",
        "period_key": "2024-09",
        "predicted_value": null
      }
    },
    {
      "type": "Feature",
      "geometry": {
        "type": "Point",
        "coordinates": [
          -79.881703,
          40.326008
        ]
      },
      "properties": {
        "station_id": "254d11de-0a64-5534-864b-346e36305d13",
        "ground_truth_value": 11.0,
        "pollutant": "PM10",
        "period_key": "2024-09",
        "predicted_value": null
      }
    },
    {
      "type": "Feature",
      "geometry": {
        "type": "Point",
        "coordinates": [
          126.8619,
          37.38569999999999
        ]
      },
      "properties": {
        "station_id": "259feed1-7d0f-515c-8c22-21f33e035962",
        "ground_truth_value": 21.5,
        "pollutant": "PM10",
        "period_key": "2024-09",
        "predicted_value": null
      }
    },
    {
      "type": "Feature",
      "geometry": {
        "type": "Point",
        "coordinates": [
          126.94906200000001,
          37.219282
        ]
      },
      "properties": {
        "station_id": "25a4e204-9b4f-5d8d-b86b-924d80732441",
        "ground_truth_value": 23.625,
        "pollutant": "PM10",
        "period_key": "2024-09",
        "predicted_value": null
      }
    },
    {
      "type": "Feature",
      "geometry": {
        "type": "Point",
        "coordinates": [
          120.44125148,
          23.46477865
        ]
      },
      "properties": {
        "station_id": "25aced36-493b-5144-a18b-24b9a8c3cad2",
        "ground_truth_value": 20.95289855072464,
        "pollutant": "PM10",
        "period_key": "2024-09",
        "predicted_value": null
      }
    },
    {
      "type": "Feature",
      "geometry": {
        "type": "Point",
        "coordinates": [
          147.122,
          -41.595
        ]
      },
      "properties": {
        "station_id": "25d1ece5-2eec-58e2-b639-bfc4681327b9",
        "ground_truth_value": 8.784722222222221,
        "pollutant": "PM10",
        "period_key": "2024-09",
        "predicted_value": null
      }
    },
    {
      "type": "Feature",
      "geometry": {
        "type": "Point",
        "coordinates": [
          126.65466300000001,
          37.382084
        ]
      },
      "properties": {
        "station_id": "267bcbeb-57fd-5cd0-9381-5edb045f3aba",
        "ground_truth_value": 17.270833333333332,
        "pollutant": "PM10",
        "period_key": "2024-09",
        "predicted_value": null
      }
    },
    {
      "type": "Feature",
      "geometry": {
        "type": "Point",
        "coordinates": [
          27.43959,
          45.81826
        ]
      },
      "properties": {
        "station_id": "26b548d8-6450-5d92-b225-be60c201d597",
        "ground_truth_value": 29.67775,
        "pollutant": "PM10",
        "period_key": "2024-09",
        "predicted_value": null
      }
    },
    {
      "type": "Feature",
      "geometry": {
        "type": "Point",
        "coordinates": [
          -117.943927,
          36.049402
        ]
      },
      "properties": {
        "station_id": "26d2a425-0057-5e74-9861-feb95a814f8a",
        "ground_truth_value": 23.0,
        "pollutant": "PM10",
        "period_key": "2024-09",
        "predicted_value": null
      }
    },
    {
      "type": "Feature",
      "geometry": {
        "type": "Point",
        "coordinates": [
          -120.64472,
          35.259502
        ]
      },
      "properties": {
        "station_id": "26ffcaf5-93ce-5d93-a970-6d0587a701ef",
        "ground_truth_value": 8.0,
        "pollutant": "PM10",
        "period_key": "2024-09",
        "predicted_value": null
      }
    },
    {
      "type": "Feature",
      "geometry": {
        "type": "Point",
        "coordinates": [
          -105.388566,
          43.42542
        ]
      },
      "properties": {
        "station_id": "2720496f-9ee2-5442-b44d-4fde257cd413",
        "ground_truth_value": 22.0,
        "pollutant": "PM10",
        "period_key": "2024-09",
        "predicted_value": null
      }
    },
    {
      "type": "Feature",
      "geometry": {
        "type": "Point",
        "coordinates": [
          151.2705,
          -23.8626
        ]
      },
      "properties": {
        "station_id": "272867ad-99a4-5f22-af74-5bf5ab8543a5",
        "ground_truth_value": 18.849999999999998,
        "pollutant": "PM10",
        "period_key": "2024-09",
        "predicted_value": null
      }
    },
    {
      "type": "Feature",
      "geometry": {
        "type": "Point",
        "coordinates": [
          16.75957,
          53.15441
        ]
      },
      "properties": {
        "station_id": "2771f0d0-2cd3-5027-b720-cb187b6b455e",
        "ground_truth_value": 22.95,
        "pollutant": "PM10",
        "period_key": "2024-09",
        "predicted_value": null
      }
    },
    {
      "type": "Feature",
      "geometry": {
        "type": "Point",
        "coordinates": [
          -117.33098,
          33.67649
        ]
      },
      "properties": {
        "station_id": "27a40375-c322-516e-ae15-d4e481fa8097",
        "ground_truth_value": 34.5,
        "pollutant": "PM10",
        "period_key": "2024-09",
        "predicted_value": null
      }
    },
    {
      "type": "Feature",
      "geometry": {
        "type": "Point",
        "coordinates": [
          126.46087,
          36.839
        ]
      },
      "properties": {
        "station_id": "27c6ce12-3c88-5db5-a7ae-a0e16f6c6d42",
        "ground_truth_value": 18.541666666666668,
        "pollutant": "PM10",
        "period_key": "2024-09",
        "predicted_value": null
      }
    },
    {
      "type": "Feature",
      "geometry": {
        "type": "Point",
        "coordinates": [
          -105.473081,
          44.42515
        ]
      },
      "properties": {
        "station_id": "27e6f309-db91-5d3a-9b5b-08c4d909aebb",
        "ground_truth_value": 36.0,
        "pollutant": "PM10",
        "period_key": "2024-09",
        "predicted_value": null
      }
    },
    {
      "type": "Feature",
      "geometry": {
        "type": "Point",
        "coordinates": [
          -116.031976,
          36.349408
        ]
      },
      "properties": {
        "station_id": "282995a4-3a26-5ae6-afce-dc82d91d9d79",
        "ground_truth_value": 20.5,
        "pollutant": "PM10",
        "period_key": "2024-09",
        "predicted_value": null
      }
    },
    {
      "type": "Feature",
      "geometry": {
        "type": "Point",
        "coordinates": [
          126.301512,
          36.746709
        ]
      },
      "properties": {
        "station_id": "283572c4-6e49-574c-9a46-60df9ff90ed7",
        "ground_truth_value": 21.729166666666668,
        "pollutant": "PM10",
        "period_key": "2024-09",
        "predicted_value": null
      }
    },
    {
      "type": "Feature",
      "geometry": {
        "type": "Point",
        "coordinates": [
          -79.802314,
          36.109006
        ]
      },
      "properties": {
        "station_id": "28615439-1395-51e4-8721-b27e259498e4",
        "ground_truth_value": 11.5,
        "pollutant": "PM10",
        "period_key": "2024-09",
        "predicted_value": null
      }
    },
    {
      "type": "Feature",
      "geometry": {
        "type": "Point",
        "coordinates": [
          19.59234,
          53.42681
        ]
      },
      "properties": {
        "station_id": "286c478f-16cf-5453-a3ee-0818472d7293",
        "ground_truth_value": 32.65,
        "pollutant": "PM10",
        "period_key": "2024-09",
        "predicted_value": null
      }
    },
    {
      "type": "Feature",
      "geometry": {
        "type": "Point",
        "coordinates": [
          126.532371,
          33.500116
        ]
      },
      "properties": {
        "station_id": "2877bfef-85b6-57f1-b9ba-c2c15c735917",
        "ground_truth_value": 23.166666666666664,
        "pollutant": "PM10",
        "period_key": "2024-09",
        "predicted_value": null
      }
    },
    {
      "type": "Feature",
      "geometry": {
        "type": "Point",
        "coordinates": [
          -109.640283,
          41.735325
        ]
      },
      "properties": {
        "station_id": "292881f6-31bb-5049-9cba-6ab2295da528",
        "ground_truth_value": 12.0,
        "pollutant": "PM10",
        "period_key": "2024-09",
        "predicted_value": null
      }
    },
    {
      "type": "Feature",
      "geometry": {
        "type": "Point",
        "coordinates": [
          127.545135,
          37.201739
        ]
      },
      "properties": {
        "station_id": "293e6753-ba30-51db-8585-9aa2050a8b4e",
        "ground_truth_value": 26.375,
        "pollutant": "PM10",
        "period_key": "2024-09",
        "predicted_value": null
      }
    },
    {
      "type": "Feature",
      "geometry": {
        "type": "Point",
        "coordinates": [
          129.389769,
          36.363249
        ]
      },
      "properties": {
        "station_id": "295eb72c-e9f4-58c7-b76b-28a3649eda38",
        "ground_truth_value": 13.625,
        "pollutant": "PM10",
        "period_key": "2024-09",
        "predicted_value": null
      }
    },
    {
      "type": "Feature",
      "geometry": {
        "type": "Point",
        "coordinates": [
          15.26248,
          46.23451
        ]
      },
      "properties": {
        "station_id": "298e8321-a423-5cdf-b8c5-c89d609e9194",
        "ground_truth_value": 12.0,
        "pollutant": "PM10",
        "period_key": "2024-09",
        "predicted_value": null
      }
    },
    {
      "type": "Feature",
      "geometry": {
        "type": "Point",
        "coordinates": [
          -6.36993,
          53.38564
        ]
      },
      "properties": {
        "station_id": "29975eb0-f21e-5b65-9264-aa123adf4ee0",
        "ground_truth_value": 12.0,
        "pollutant": "PM10",
        "period_key": "2024-09",
        "predicted_value": null
      }
    },
    {
      "type": "Feature",
      "geometry": {
        "type": "Point",
        "coordinates": [
          16.26162,
          50.20961
        ]
      },
      "properties": {
        "station_id": "299d91ca-b363-5d37-9ac4-4306180504eb",
        "ground_truth_value": 16.95,
        "pollutant": "PM10",
        "period_key": "2024-09",
        "predicted_value": null
      }
    },
    {
      "type": "Feature",
      "geometry": {
        "type": "Point",
        "coordinates": [
          126.391767,
          34.80593
        ]
      },
      "properties": {
        "station_id": "29c9a46c-b3ca-5ac9-b715-3eeb85624dcc",
        "ground_truth_value": 16.166666666666664,
        "pollutant": "PM10",
        "period_key": "2024-09",
        "predicted_value": null
      }
    },
    {
      "type": "Feature",
      "geometry": {
        "type": "Point",
        "coordinates": [
          105.5773,
          20.8994
        ]
      },
      "properties": {
        "station_id": "2a4afe7d-12ed-50b5-bebc-8629fea8575b",
        "ground_truth_value": 38.65208333333334,
        "pollutant": "PM10",
        "period_key": "2024-09",
        "predicted_value": null
      }
    },
    {
      "type": "Feature",
      "geometry": {
        "type": "Point",
        "coordinates": [
          121.08895493,
          24.74091408
        ]
      },
      "properties": {
        "station_id": "2a6a1643-5b9e-5474-af71-dfdd1e046a1a",
        "ground_truth_value": 16.875,
        "pollutant": "PM10",
        "period_key": "2024-09",
        "predicted_value": null
      }
    },
    {
      "type": "Feature",
      "geometry": {
        "type": "Point",
        "coordinates": [
          12.21833,
          45.49028
        ]
      },
      "properties": {
        "station_id": "2a79d738-5c08-5eff-a7cd-89b6ea9e227d",
        "ground_truth_value": 16.0,
        "pollutant": "PM10",
        "period_key": "2024-09",
        "predicted_value": null
      }
    },
    {
      "type": "Feature",
      "geometry": {
        "type": "Point",
        "coordinates": [
          -98.494061,
          45.468596
        ]
      },
      "properties": {
        "station_id": "2a8b50ca-d0c4-570e-9795-fc020d8fdccc",
        "ground_truth_value": 29.0,
        "pollutant": "PM10",
        "period_key": "2024-09",
        "predicted_value": null
      }
    },
    {
      "type": "Feature",
      "geometry": {
        "type": "Point",
        "coordinates": [
          -119.741332,
          36.705474
        ]
      },
      "properties": {
        "station_id": "2aa954bb-5fda-5c52-9c96-269b99075f31",
        "ground_truth_value": 75.5,
        "pollutant": "PM10",
        "period_key": "2024-09",
        "predicted_value": null
      }
    },
    {
      "type": "Feature",
      "geometry": {
        "type": "Point",
        "coordinates": [
          126.52259070000001,
          35.0619768
        ]
      },
      "properties": {
        "station_id": "2af84ff3-d8db-5f8a-9a1c-6deb86db8905",
        "ground_truth_value": 16.5625,
        "pollutant": "PM10",
        "period_key": "2024-09",
        "predicted_value": null
      }
    },
    {
      "type": "Feature",
      "geometry": {
        "type": "Point",
        "coordinates": [
          127.370516,
          36.527029
        ]
      },
      "properties": {
        "station_id": "2b85c8c7-3924-5be0-8323-64f3f1cb5d7b",
        "ground_truth_value": 17.083333333333332,
        "pollutant": "PM10",
        "period_key": "2024-09",
        "predicted_value": null
      }
    },
    {
      "type": "Feature",
      "geometry": {
        "type": "Point",
        "coordinates": [
          -112.857453,
          32.382036
        ]
      },
      "properties": {
        "station_id": "2bc7e2c3-22d9-5b47-8e5a-9a01bcf324db",
        "ground_truth_value": 20.0,
        "pollutant": "PM10",
        "period_key": "2024-09",
        "predicted_value": null
      }
    },
    {
      "type": "Feature",
      "geometry": {
        "type": "Point",
        "coordinates": [
          148.0713,
          -21.9995
        ]
      },
      "properties": {
        "station_id": "2bdeabdd-0211-5f8d-8ee4-89398ee340fb",
        "ground_truth_value": 29.87083333333333,
        "pollutant": "PM10",
        "period_key": "2024-09",
        "predicted_value": null
      }
    },
    {
      "type": "Feature",
      "geometry": {
        "type": "Point",
        "coordinates": [
          -115.553309,
          48.391545
        ]
      },
      "properties": {
        "station_id": "2be19974-a3af-51c1-8f1c-719e339a2f68",
        "ground_truth_value": 13.0,
        "pollutant": "PM10",
        "period_key": "2024-09",
        "predicted_value": null
      }
    },
    {
      "type": "Feature",
      "geometry": {
        "type": "Point",
        "coordinates": [
          -105.561944,
          41.4945
        ]
      },
      "properties": {
        "station_id": "2c65520e-a1cc-5379-96bf-ec9e961567e1",
        "ground_truth_value": 9.0,
        "pollutant": "PM10",
        "period_key": "2024-09",
        "predicted_value": null
      }
    },
    {
      "type": "Feature",
      "geometry": {
        "type": "Point",
        "coordinates": [
          -72.316818237305,
          -35.969115075775
        ]
      },
      "properties": {
        "station_id": "2c77d96d-efac-5a2b-8394-300fb17468a7",
        "ground_truth_value": 30.291666666666668,
        "pollutant": "PM10",
        "period_key": "2024-09",
        "predicted_value": null
      }
    },
    {
      "type": "Feature",
      "geometry": {
        "type": "Point",
        "coordinates": [
          12.61861,
          43.31778
        ]
      },
      "properties": {
        "station_id": "2c8ed448-6694-592e-9842-28f1d63c38b4",
        "ground_truth_value": 10.5,
        "pollutant": "PM10",
        "period_key": "2024-09",
        "predicted_value": null
      }
    },
    {
      "type": "Feature",
      "geometry": {
        "type": "Point",
        "coordinates": [
          -7.73515,
          54.95445
        ]
      },
      "properties": {
        "station_id": "2cbc8e2c-3dcd-50fa-836f-247712aac711",
        "ground_truth_value": 11.45,
        "pollutant": "PM10",
        "period_key": "2024-09",
        "predicted_value": null
      }
    },
    {
      "type": "Feature",
      "geometry": {
        "type": "Point",
        "coordinates": [
          -122.269722,
          47.893611
        ]
      },
      "properties": {
        "station_id": "2d1906b9-4a85-5a47-8558-aae1aa079c69",
        "ground_truth_value": 8.5,
        "pollutant": "PM10",
        "period_key": "2024-09",
        "predicted_value": null
      }
    },
    {
      "type": "Feature",
      "geometry": {
        "type": "Point",
        "coordinates": [
          -117.941827,
          36.54314
        ]
      },
      "properties": {
        "station_id": "2d2057f7-4751-51af-ac26-3857814a4fbd",
        "ground_truth_value": 16.0,
        "pollutant": "PM10",
        "period_key": "2024-09",
        "predicted_value": null
      }
    },
    {
      "type": "Feature",
      "geometry": {
        "type": "Point",
        "coordinates": [
          -110.936718,
          31.337204
        ]
      },
      "properties": {
        "station_id": "2d3897e7-df60-5046-a212-5f434ea169f0",
        "ground_truth_value": 39.5,
        "pollutant": "PM10",
        "period_key": "2024-09",
        "predicted_value": null
      }
    },
    {
      "type": "Feature",
      "geometry": {
        "type": "Point",
        "coordinates": [
          -72.334079,
          42.298493
        ]
      },
      "properties": {
        "station_id": "2d93ea9b-855b-5210-ad87-768fe484349e",
        "ground_truth_value": 8.0,
        "pollutant": "PM10",
        "period_key": "2024-09",
        "predicted_value": null
      }
    },
    {
      "type": "Feature",
      "geometry": {
        "type": "Point",
        "coordinates": [
          -119.143182,
          34.25239
        ]
      },
      "properties": {
        "station_id": "2de4362c-615c-5b3a-b26a-edaf2859fb71",
        "ground_truth_value": 20.5,
        "pollutant": "PM10",
        "period_key": "2024-09",
        "predicted_value": null
      }
    },
    {
      "type": "Feature",
      "geometry": {
        "type": "Point",
        "coordinates": [
          13.06667,
          46.22083
        ]
      },
      "properties": {
        "station_id": "2deb8664-9c5a-5612-84ca-c26b86a4b7c9",
        "ground_truth_value": 16.0,
        "pollutant": "PM10",
        "period_key": "2024-09",
        "predicted_value": null
      }
    },
    {
      "type": "Feature",
      "geometry": {
        "type": "Point",
        "coordinates": [
          20.42205,
          53.36111
        ]
      },
      "properties": {
        "station_id": "2e430ba5-1348-59a3-8c26-363ac457ca7e",
        "ground_truth_value": 27.05,
        "pollutant": "PM10",
        "period_key": "2024-09",
        "predicted_value": null
      }
    },
    {
      "type": "Feature",
      "geometry": {
        "type": "Point",
        "coordinates": [
          153.3475,
          -27.9535
        ]
      },
      "properties": {
        "station_id": "2e65684d-89fd-5c19-b518-66e7a6271aa0",
        "ground_truth_value": 19.874999999999996,
        "pollutant": "PM10",
        "period_key": "2024-09",
        "predicted_value": null
      }
    },
    {
      "type": "Feature",
      "geometry": {
        "type": "Point",
        "coordinates": [
          -73.194722,
          41.170833
        ]
      },
      "properties": {
        "station_id": "2e737cb9-dc7d-5921-bf49-63b8dca2fd69",
        "ground_truth_value": 11.0,
        "pollutant": "PM10",
        "period_key": "2024-09",
        "predicted_value": null
      }
    },
    {
      "type": "Feature",
      "geometry": {
        "type": "Point",
        "coordinates": [
          -71.878626,
          42.86183
        ]
      },
      "properties": {
        "station_id": "2e7e2787-90e1-59ce-a0d4-e3d01e15b56f",
        "ground_truth_value": 8.0,
        "pollutant": "PM10",
        "period_key": "2024-09",
        "predicted_value": null
      }
    },
    {
      "type": "Feature",
      "geometry": {
        "type": "Point",
        "coordinates": [
          11.78333,
          45.07472
        ]
      },
      "properties": {
        "station_id": "2e94737e-b0b9-5b01-8740-85ef4187f453",
        "ground_truth_value": 17.0,
        "pollutant": "PM10",
        "period_key": "2024-09",
        "predicted_value": null
      }
    },
    {
      "type": "Feature",
      "geometry": {
        "type": "Point",
        "coordinates": [
          127.48718899999999,
          34.950357
        ]
      },
      "properties": {
        "station_id": "2ea0a46f-c0b4-524b-ad9f-b55ac839f949",
        "ground_truth_value": 15.6875,
        "pollutant": "PM10",
        "period_key": "2024-09",
        "predicted_value": null
      }
    },
    {
      "type": "Feature",
      "geometry": {
        "type": "Point",
        "coordinates": [
          -119.746761,
          39.540917
        ]
      },
      "properties": {
        "station_id": "2ece97ee-859f-5741-94cb-5b1c5ea1970d",
        "ground_truth_value": 28.5,
        "pollutant": "PM10",
        "period_key": "2024-09",
        "predicted_value": null
      }
    },
    {
      "type": "Feature",
      "geometry": {
        "type": "Point",
        "coordinates": [
          121.36548982,
          25.077989489999997
        ]
      },
      "properties": {
        "station_id": "2f0851b0-7ab8-5c93-a70a-1e6a864e72c9",
        "ground_truth_value": 10.166666666666668,
        "pollutant": "PM10",
        "period_key": "2024-09",
        "predicted_value": null
      }
    },
    {
      "type": "Feature",
      "geometry": {
        "type": "Point",
        "coordinates": [
          -95.81789,
          44.4438
        ]
      },
      "properties": {
        "station_id": "2f284fc4-306e-5076-a4e2-0d09de2e231d",
        "ground_truth_value": 36.0,
        "pollutant": "PM10",
        "period_key": "2024-09",
        "predicted_value": null
      }
    },
    {
      "type": "Feature",
      "geometry": {
        "type": "Point",
        "coordinates": [
          125.09227599999998,
          34.076677
        ]
      },
      "properties": {
        "station_id": "2f360c79-8954-5826-b683-3026c56fa1b9",
        "ground_truth_value": 22.541666666666668,
        "pollutant": "PM10",
        "period_key": "2024-09",
        "predicted_value": null
      }
    },
    {
      "type": "Feature",
      "geometry": {
        "type": "Point",
        "coordinates": [
          12.40167,
          43.90806
        ]
      },
      "properties": {
        "station_id": "2f67e6b1-d108-502a-9992-5ec9c04164c0",
        "ground_truth_value": 9.5,
        "pollutant": "PM10",
        "period_key": "2024-09",
        "predicted_value": null
      }
    },
    {
      "type": "Feature",
      "geometry": {
        "type": "Point",
        "coordinates": [
          15.05395,
          46.15751
        ]
      },
      "properties": {
        "station_id": "2f6b0cf7-549b-552c-b3c3-bfd1877ffddd",
        "ground_truth_value": 10.5,
        "pollutant": "PM10",
        "period_key": "2024-09",
        "predicted_value": null
      }
    },
    {
      "type": "Feature",
      "geometry": {
        "type": "Point",
        "coordinates": [
          -71.678261499336,
          -35.435141887663
        ]
      },
      "properties": {
        "station_id": "2f6d2723-319e-5a14-9fcb-9705a53532f4",
        "ground_truth_value": 28.270833333333336,
        "pollutant": "PM10",
        "period_key": "2024-09",
        "predicted_value": null
      }
    },
    {
      "type": "Feature",
      "geometry": {
        "type": "Point",
        "coordinates": [
          -109.769957,
          41.584957
        ]
      },
      "properties": {
        "station_id": "2f97d9ae-4c65-54f0-8fe9-a9f642ed2c10",
        "ground_truth_value": 16.5,
        "pollutant": "PM10",
        "period_key": "2024-09",
        "predicted_value": null
      }
    },
    {
      "type": "Feature",
      "geometry": {
        "type": "Point",
        "coordinates": [
          -108.753826,
          41.61487
        ]
      },
      "properties": {
        "station_id": "2ffb5081-eba6-53a7-9b91-dc7669b567bc",
        "ground_truth_value": 15.0,
        "pollutant": "PM10",
        "period_key": "2024-09",
        "predicted_value": null
      }
    },
    {
      "type": "Feature",
      "geometry": {
        "type": "Point",
        "coordinates": [
          23.22639,
          46.10964
        ]
      },
      "properties": {
        "station_id": "303968af-98d2-5a0e-ac7e-35a30904acac",
        "ground_truth_value": 4.4064499999999995,
        "pollutant": "PM10",
        "period_key": "2024-09",
        "predicted_value": null
      }
    },
    {
      "type": "Feature",
      "geometry": {
        "type": "Point",
        "coordinates": [
          10.53417,
          42.93917
        ]
      },
      "properties": {
        "station_id": "306aaee2-6553-54e6-b221-1686c152c4ca",
        "ground_truth_value": 14.5,
        "pollutant": "PM10",
        "period_key": "2024-09",
        "predicted_value": null
      }
    },
    {
      "type": "Feature",
      "geometry": {
        "type": "Point",
        "coordinates": [
          127.189881,
          37.72627
        ]
      },
      "properties": {
        "station_id": "30f033a4-8f2c-5cb1-845a-b920a179e3ed",
        "ground_truth_value": 18.291666666666668,
        "pollutant": "PM10",
        "period_key": "2024-09",
        "predicted_value": null
      }
    },
    {
      "type": "Feature",
      "geometry": {
        "type": "Point",
        "coordinates": [
          127.02726400000002,
          37.60666700000001
        ]
      },
      "properties": {
        "station_id": "3136b1d5-b575-536f-94fe-758137ee6ad5",
        "ground_truth_value": 14.375,
        "pollutant": "PM10",
        "period_key": "2024-09",
        "predicted_value": null
      }
    },
    {
      "type": "Feature",
      "geometry": {
        "type": "Point",
        "coordinates": [
          129.305696,
          35.493249999999996
        ]
      },
      "properties": {
        "station_id": "31486dd2-edab-59bd-bb58-7628e83ce5d2",
        "ground_truth_value": 19.625,
        "pollutant": "PM10",
        "period_key": "2024-09",
        "predicted_value": null
      }
    },
    {
      "type": "Feature",
      "geometry": {
        "type": "Point",
        "coordinates": [
          -105.36983,
          43.638927
        ]
      },
      "properties": {
        "station_id": "31620b82-970e-5faf-b6fc-a886415df0b1",
        "ground_truth_value": 38.0,
        "pollutant": "PM10",
        "period_key": "2024-09",
        "predicted_value": null
      }
    },
    {
      "type": "Feature",
      "geometry": {
        "type": "Point",
        "coordinates": [
          126.71511,
          37.52922
        ]
      },
      "properties": {
        "station_id": "317b59e2-1052-5ee7-8edb-95e38ddfacca",
        "ground_truth_value": 856.125,
        "pollutant": "PM10",
        "period_key": "2024-09",
        "predicted_value": null
      }
    },
    {
      "type": "Feature",
      "geometry": {
        "type": "Point",
        "coordinates": [
          16.76639,
          47.77028
        ]
      },
      "properties": {
        "station_id": "3186936d-0513-5822-b1ef-373ba8c451d2",
        "ground_truth_value": 10.6062045,
        "pollutant": "PM10",
        "period_key": "2024-09",
        "predicted_value": null
      }
    },
    {
      "type": "Feature",
      "geometry": {
        "type": "Point",
        "coordinates": [
          14.49322,
          35.89556
        ]
      },
      "properties": {
        "station_id": "31b2717c-f60e-5c61-b8be-542454f13ef8",
        "ground_truth_value": 32.849999999999994,
        "pollutant": "PM10",
        "period_key": "2024-09",
        "predicted_value": null
      }
    },
    {
      "type": "Feature",
      "geometry": {
        "type": "Point",
        "coordinates": [
          -83.01159,
          39.91251
        ]
      },
      "properties": {
        "station_id": "320cbb92-9f8a-5e02-8e50-e452f4583551",
        "ground_truth_value": 30.0,
        "pollutant": "PM10",
        "period_key": "2024-09",
        "predicted_value": null
      }
    },
    {
      "type": "Feature",
      "geometry": {
        "type": "Point",
        "coordinates": [
          -9.08589,
          53.27357
        ]
      },
      "properties": {
        "station_id": "323759b2-36f2-5c73-b2f8-f327cdaf783c",
        "ground_truth_value": 9.45,
        "pollutant": "PM10",
        "period_key": "2024-09",
        "predicted_value": null
      }
    },
    {
      "type": "Feature",
      "geometry": {
        "type": "Point",
        "coordinates": [
          -76.387017,
          37.103733
        ]
      },
      "properties": {
        "station_id": "325e0ba1-8552-5f21-98bc-14b36dd63ca5",
        "ground_truth_value": 13.5,
        "pollutant": "PM10",
        "period_key": "2024-09",
        "predicted_value": null
      }
    },
    {
      "type": "Feature",
      "geometry": {
        "type": "Point",
        "coordinates": [
          12.14199,
          54.09228
        ]
      },
      "properties": {
        "station_id": "325f7cb8-14e8-573b-a099-fa1747227b7f",
        "ground_truth_value": 17.130000000000003,
        "pollutant": "PM10",
        "period_key": "2024-09",
        "predicted_value": null
      }
    },
    {
      "type": "Feature",
      "geometry": {
        "type": "Point",
        "coordinates": [
          9.73323,
          49.10788
        ]
      },
      "properties": {
        "station_id": "32adf757-60ca-5b6c-9645-2aba8c27cf74",
        "ground_truth_value": 9.37125,
        "pollutant": "PM10",
        "period_key": "2024-09",
        "predicted_value": null
      }
    },